$GPRMC,082322.00,A,4825.1420452,N,00428.4545853,W,0.0,0.0,060624,999.9,E,D*22
$GPVTG,000.00,T,-639.90,M,000.004,N,000.007,K,D*0D
$GNGSA,A,3,26,05,29,18,27,31,16,23,,,,,1.2,0.7,1.0,1*36
$GNGSA,A,3,78,88,81,79,,,,,,,,,1.2,0.7,1.0,2*3F
$GPGSV,4,1,13,01,67,137,48,05,11,032,35,08,06,263,35,09,01,309,29,1*6E
$GPGSV,4,2,13,10,00,156,,16,60,300,46,18,61,076,46,23,17,129,40,1*67
$GPGSV,4,3,13,26,75,164,47,27,39,267,44,28,06,183,35,29,15,073,38,1*6B
$GPGSV,4,4,13,31,29,203,43,1*59
$GSGSV,3,1,10,01,33,195,,02,34,181,40,04,28,145,41,05,29,147,,1*66
$GSGSV,3,2,10,06,33,195,,07,05,106,,08,11,114,31,17,34,167,43,1*61
$GSGSV,3,3,10,28,19,125,,39,17,237,,1*68
$GLGSV,3,1,10,70,02,332,,71,10,017,,72,04,061,29,77,11,151,,1*75
$GLGSV,3,2,10,78,69,173,47,79,50,317,46,80,00,327,,81,41,229,45,1*78
$GLGSV,3,3,10,87,21,041,,88,79,023,46,1*7D
$GQGSV,1,1,00,1*65
$GAGSV,2,1,08,04,04,294,,09,04,339,,13,69,148,46,15,40,051,43,7*72
$GAGSV,2,2,08,18,,,37,21,86,268,46,26,24,202,39,27,37,128,43,7*40
$GBGSV,3,1,10,05,09,110,29,08,28,037,30,11,39,056,36,13,32,049,34,1*72
$GBGSV,3,2,10,21,07,050,,22,01,003,,23,47,180,39,25,03,155,,1*71
$GBGSV,3,3,10,27,06,237,29,28,51,235,39,1*79
$GIGSV,1,1,03,01,,,35,02,10,115,31,06,21,136,34,1*7B
$GPZDA,082323.00,06,06,2024,,*6A
$GPGGA,082323.00,4825.1420450,N,00428.4545866,W,4,12,0.7,89.947,M,51.637,M,1.0,4095*66
$GPRMC,082323.00,A,4825.1420450,N,00428.4545866,W,0.0,0.0,060624,999.9,E,D*27
$GPVTG,000.00,T,-639.90,M,000.002,N,000.003,K,D*0F
$GNGSA,A,3,26,05,29,18,27,31,16,23,,,,,1.2,0.7,1.0,1*36
$GNGSA,A,3,78,88,81,79,,,,,,,,,1.2,0.7,1.0,2*3F
$GPGSV,4,1,13,01,67,137,48,05,11,032,35,08,06,263,36,09,01,309,28,1*6C
$GPGSV,4,2,13,10,00,156,,16,60,300,46,18,61,076,47,23,17,129,40,1*66
$GPGSV,4,3,13,26,75,164,48,27,39,267,44,28,06,183,36,29,15,073,38,1*67
$GPGSV,4,4,13,31,29,203,43,1*59
$GSGSV,3,1,10,01,33,195,,02,34,181,41,04,28,145,41,05,29,147,,1*67
$GSGSV,3,2,10,06,33,195,,07,05,106,,08,11,114,31,17,34,167,42,1*60
$GSGSV,3,3,10,28,19,125,,39,17,237,,1*68
$GLGSV,3,1,10,70,01,332,,71,10,017,,72,04,061,30,77,11,151,,1*7E
$GLGSV,3,2,10,78,69,173,47,79,50,317,46,80,00,327,,81,41,229,46,1*7B
$GLGSV,3,3,10,87,21,041,,88,79,023,46,1*7D
$GQGSV,1,1,00,1*65
$GAGSV,2,1,08,04,04,294,,09,04,339,,13,69,148,47,15,40,051,43,7*73
$GAGSV,2,2,08,18,,,37,21,86,268,46,26,24,202,40,27,37,128,42,7*4F
$GBGSV,3,1,10,05,09,110,29,08,28,037,31,11,39,056,36,13,32,049,34,1*73
$GBGSV,3,2,10,21,07,050,,22,01,003,,23,47,180,39,25,03,155,,1*71
$GBGSV,3,3,10,27,06,237,28,28,51,235,38,1*79
$GIGSV,1,1,03,01,,,36,02,10,115,31,06,21,136,32,1*7E
$GPZDA,082324.00,06,06,2024,,*6D
$GPGGA,082324.00,4825.1420447,N,00428.4545852,W,4,12,0.7,89.945,M,51.637,M,1.0,4095*62
$GPRMC,082324.00,A,4825.1420447,N,00428.4545852,W,0.0,0.0,060624,999.9,E,D*21
$GPVTG,000.00,T,-639.90,M,000.005,N,000.008,K,D*03
$GNGSA,A,3,26,05,29,18,27,31,16,23,,,,,1.2,0.7,1.0,1*36
$GNGSA,A,3,78,88,81,79,,,,,,,,,1.2,0.7,1.0,2*3F
$GPGSV,4,1,13,01,67,137,49,05,11,032,35,08,06,263,36,09,01,309,28,1*6D
$GPGSV,4,2,13,10,00,156,,16,60,300,46,18,61,076,47,23,17,129,39,1*68
$GPGSV,4,3,13,26,75,164,48,27,39,267,44,28,06,183,35,29,15,073,39,1*65
$GPGSV,4,4,13,31,29,203,43,1*59
$GSGSV,3,1,10,01,33,195,,02,34,181,40,04,28,145,41,05,29,147,,1*66
$GSGSV,3,2,10,06,33,195,,07,05,106,,08,11,114,31,17,34,167,43,1*61
$GSGSV,3,3,10,28,19,125,,39,17,237,,1*68
$GLGSV,3,1,10,70,01,332,,71,10,017,,72,04,061,30,77,11,151,,1*7E
$GLGSV,3,2,10,78,69,173,47,79,50,317,46,80,00,327,,81,41,229,45,1*78
$GLGSV,3,3,10,87,21,041,,88,79,023,46,1*7D
$GQGSV,1,1,00,1*65
$GAGSV,2,1,08,04,04,294,,09,04,339,,13,69,148,46,15,40,051,43,7*72
$GAGSV,2,2,08,18,,,37,21,86,268,46,26,24,202,39,27,37,128,43,7*40
$GBGSV,3,1,10,05,09,110,30,08,28,037,30,11,39,056,36,13,32,049,33,1*7D
$GBGSV,3,2,10,21,07,050,,22,01,003,,23,47,180,39,25,03,155,,1*71
$GBGSV,3,3,10,27,06,237,28,28,51,235,39,1*78
$GIGSV,1,1,03,01,,,36,02,10,115,31,06,21,136,33,1*7F
$GPZDA,082325.00,06,06,2024,,*6C
$GPGGA,082325.00,4825.1420437,N,00428.4545851,W,4,12,0.7,89.946,M,51.637,M,1.0,4095*64
$GPRMC,082325.00,A,4825.1420437,N,00428.4545851,W,0.0,0.0,060624,999.9,E,D*24
$GPVTG,000.00,T,-639.90,M,000.004,N,000.008,K,D*02
$GNGSA,A,3,26,05,29,18,27,31,16,23,,,,,1.2,0.7,1.0,1*36
$GNGSA,A,3,78,88,81,79,,,,,,,,,1.2,0.7,1.0,2*3F
$GPGSV,4,1,13,01,67,137,49,05,11,032,35,08,06,263,36,09,01,309,28,1*6D
$GPGSV,4,2,13,10,00,156,,16,60,300,46,18,61,076,47,23,17,129,39,1*68
$GPGSV,4,3,13,26,75,164,48,27,39,267,44,28,06,183,35,29,15,073,38,1*64
$GPGSV,4,4,13,31,29,203,43,1*59
$GSGSV,3,1,10,01,33,195,,02,34,181,40,04,28,145,42,05,29,147,,1*65
$GSGSV,3,2,10,06,33,195,,07,05,106,,08,11,114,31,17,34,167,43,1*61
$GSGSV,3,3,10,28,19,125,,39,17,237,,1*68
$GLGSV,3,1,10,70,01,332,,71,10,017,,72,04,061,30,77,11,151,,1*7E
$GLGSV,3,2,10,78,69,173,47,79,50,317,47,80,00,327,,81,41,229,46,1*7A
$GLGSV,3,3,10,87,21,041,,88,79,023,46,1*7D
$GQGSV,1,1,00,1*65
$GAGSV,2,1,08,04,04,294,,09,04,339,,13,69,148,46,15,40,051,43,7*72
$GAGSV,2,2,08,18,,,37,21,86,267,46,26,24,202,39,27,37,128,43,7*4F
$GBGSV,3,1,10,05,09,110,30,08,28,037,30,11,39,056,37,13,32,049,33,1*7C
$GBGSV,3,2,10,21,07,050,,22,01,003,,23,47,180,39,25,03,155,,1*71
$GBGSV,3,3,10,27,06,237,28,28,51,235,39,1*78
$GIGSV,1,1,03,01,,,36,02,10,115,30,06,21,136,33,1*7E
$GPZDA,082326.00,06,06,2024,,*6F
$GPGGA,082326.00,4825.1420444,N,00428.4545871,W,4,12,0.7,89.944,M,51.637,M,1.0,4095*63
$GPRMC,082326.00,A,4825.1420444,N,00428.4545871,W,0.0,0.0,060624,999.9,E,D*21
$GPVTG,000.00,T,-639.90,M,000.002,N,000.005,K,D*09
$GNGSA,A,3,26,05,29,18,27,31,16,23,,,,,1.2,0.7,1.0,1*36
$GNGSA,A,3,78,88,81,79,,,,,,,,,1.2,0.7,1.0,2*3F
$GPGSV,4,1,13,01,67,137,49,05,11,031,35,08,06,263,35,09,01,309,28,1*6D
$GPGSV,4,2,13,10,00,156,,16,60,300,46,18,61,076,46,23,17,129,40,1*67
$GPGSV,4,3,13,26,75,164,47,27,39,267,43,28,06,183,35,29,15,073,37,1*63
$GPGSV,4,4,13,31,29,203,43,1*59
$GSGSV,3,1,10,01,33,195,,02,34,181,39,04,28,145,42,05,29,147,,1*6B
$GSGSV,3,2,10,06,33,195,,07,05,106,,08,11,114,31,17,34,167,42,1*60
$GSGSV,3,3,10,28,19,125,,39,17,237,,1*68
$GLGSV,3,1,10,70,01,332,,71,10,017,,72,04,061,30,77,11,151,,1*7E
$GLGSV,3,2,10,78,69,173,47,79,50,317,46,80,00,327,,81,41,229,46,1*7B
$GLGSV,3,3,10,87,21,041,,88,79,023,46,1*7D
$GQGSV,1,1,00,1*65
$GAGSV,2,1,08,04,04,294,,09,04,339,,13,69,148,46,15,40,051,43,7*72
$GAGSV,2,2,08,18,,,37,21,86,267,46,26,24,202,40,27,37,128,42,7*40
$GBGSV,3,1,10,05,09,110,30,08,28,037,30,11,39,056,37,13,32,049,33,1*7C
$GBGSV,3,2,10,21,07,050,,22,01,003,,23,47,180,38,25,03,155,,1*70
$GBGSV,3,3,10,27,06,237,29,28,51,235,38,1*78
$GIGSV,1,1,03,01,,,35,02,10,115,30,06,21,136,32,1*7C
$GPZDA,082327.00,06,06,2024,,*6E
$GPGGA,082327.00,4825.1420436,N,00428.4545864,W,4,12,0.7,89.951,M,51.637,M,1.0,4095*67
$GPRMC,082327.00,A,4825.1420436,N,00428.4545864,W,0.0,0.0,060624,999.9,E,D*21
$GPVTG,000.00,T,-639.90,M,000.005,N,000.009,K,D*02
$GNGSA,A,3,26,05,29,18,27,31,16,23,,,,,1.2,0.7,1.0,1*36
$GNGSA,A,3,78,88,81,79,,,,,,,,,1.2,0.7,1.0,2*3F
$GPGSV,4,1,13,01,67,137,49,05,11,031,34,08,06,263,36,09,01,309,28,1*6F
$GPGSV,4,2,13,10,00,156,,16,60,300,46,18,61,076,46,23,17,129,40,1*67
$GPGSV,4,3,13,26,75,164,47,27,39,267,43,28,06,183,35,29,15,073,38,1*6C
$GPGSV,4,4,13,31,29,203,43,1*59
$GSGSV,3,1,10,01,33,195,,02,34,181,40,04,28,145,42,05,29,147,,1*65
$GSGSV,3,2,10,06,33,195,,07,05,106,,08,11,114,31,17,34,167,43,1*61
$GSGSV,3,3,10,28,19,125,,39,17,237,,1*68
$GLGSV,3,1,10,70,01,332,,71,10,017,,72,04,061,31,77,11,151,,1*7F
$GLGSV,3,2,10,78,69,173,47,79,50,317,47,80,00,327,,81,41,229,46,1*7A
$GLGSV,3,3,10,87,21,041,,88,79,023,46,1*7D
$GQGSV,1,1,00,1*65
$GAGSV,2,1,08,04,04,294,,09,04,339,,13,69,148,47,15,40,051,43,7*73
$GAGSV,2,2,08,18,,,37,21,86,267,47,26,24,202,39,27,37,128,42,7*4F
$GBGSV,3,1,10,05,09,110,29,08,28,037,30,11,39,056,36,13,32,049,34,1*72
$GBGSV,3,2,10,21,07,050,,22,01,003,,23,47,180,39,25,03,155,,1*71
$GBGSV,3,3,10,27,06,237,30,28,51,235,38,1*70
$GIGSV,1,1,03,01,,,36,02,10,115,31,06,21,136,33,1*7F
$GPZDA,082328.00,06,06,2024,,*61
$GPGGA,082328.00,4825.1420441,N,00428.4545858,W,4,12,0.7,89.952,M,51.637,M,1.0,4095*64
$GPRMC,082328.00,A,4825.1420441,N,00428.4545858,W,0.0,0.0,060624,999.9,E,D*21
$GPVTG,000.00,T,-639.90,M,000.003,N,000.006,K,D*0B
$GNGSA,A,3,26,05,29,18,27,31,16,23,,,,,1.2,0.7,1.0,1*36
$GNGSA,A,3,78,88,81,79,,,,,,,,,1.2,0.7,1.0,2*3F
$GPGSV,4,1,13,01,67,137,48,05,11,031,35,08,06,263,35,09,01,309,28,1*6C
$GPGSV,4,2,13,10,00,156,,16,60,300,46,18,61,076,46,23,17,129,39,1*69
$GPGSV,4,3,13,26,75,164,48,27,39,267,43,28,06,183,35,29,15,073,38,1*63
$GPGSV,4,4,13,31,29,203,43,1*59
$GSGSV,3,1,10,01,33,195,,02,34,181,40,04,28,145,42,05,29,147,,1*65
$GSGSV,3,2,10,06,33,195,,07,05,106,,08,11,114,31,17,34,167,43,1*61
$GSGSV,3,3,10,28,19,125,,39,17,237,,1*68
$GLGSV,3,1,10,70,01,332,,71,10,017,,72,04,061,31,77,11,151,,1*7F
$GLGSV,3,2,10,78,69,173,47,79,50,317,46,80,00,327,,81,41,229,46,1*7B
$GLGSV,3,3,10,87,21,041,,88,79,023,46,1*7D
$GQGSV,1,1,00,1*65
$GAGSV,2,1,08,04,04,294,,09,04,339,,13,69,148,46,15,40,051,43,7*72
$GAGSV,2,2,08,18,,,37,21,86,267,46,26,24,202,39,27,37,128,42,7*4E
$GBGSV,3,1,10,05,09,110,28,08,28,037,30,11,39,056,36,13,32,049,34,1*73
$GBGSV,3,2,10,21,07,050,,22,01,003,,23,47,180,39,25,03,155,,1*71
$GBGSV,3,3,10,27,06,237,29,28,51,235,38,1*78
$GIGSV,1,1,03,01,,,36,02,10,115,31,06,21,136,33,1*7F
$GPZDA,082329.00,06,06,2024,,*60
$GPGGA,082329.00,4825.1420454,N,00428.4545859,W,4,12,0.7,89.945,M,51.637,M,1.0,4095*66
$GPRMC,082329.00,A,4825.1420454,N,00428.4545859,W,0.0,0.0,060624,999.9,E,D*25
$GPVTG,000.00,T,-639.90,M,000.003,N,000.006,K,D*0B
$GNGSA,A,3,26,05,29,18,27,31,16,23,,,,,1.2,0.7,1.0,1*36
$GNGSA,A,3,78,88,81,79,,,,,,,,,1.2,0.7,1.0,2*3F
$GPGSV,4,1,13,01,67,137,48,05,11,031,35,08,06,263,35,09,01,309,28,1*6C
$GPGSV,4,2,13,10,00,156,,16,60,300,46,18,61,076,46,23,17,129,40,1*67
$GPGSV,4,3,13,26,75,164,47,27,39,267,44,28,06,183,34,29,15,073,37,1*65
$GPGSV,4,4,13,31,29,203,43,1*59
$GSGSV,3,1,10,01,33,195,,02,34,181,39,04,28,145,42,05,29,147,,1*6B
$GSGSV,3,2,10,06,33,195,,07,05,106,,08,11,114,32,17,34,167,43,1*62
$GSGSV,3,3,10,28,19,125,,39,17,237,,1*68
$GLGSV,3,1,10,70,01,332,,71,10,017,,72,04,061,32,77,11,151,,1*7C
$GLGSV,3,2,10,78,69,173,48,79,50,317,46,80,00,327,,81,41,229,46,1*74
$GLGSV,3,3,10,87,21,041,,88,79,023,46,1*7D
$GQGSV,1,1,00,1*65
$GAGSV,2,1,08,04,04,294,,09,04,339,,13,69,148,46,15,40,051,43,7*72
$GAGSV,2,2,08,18,,,38,21,86,267,47,26,24,202,39,27,37,128,42,7*40
$GBGSV,3,1,10,05,09,110,29,08,28,037,30,11,38,056,36,13,32,049,34,1*73
$GBGSV,3,2,10,21,07,050,,22,01,003,,23,47,180,39,25,03,155,,1*71
$GBGSV,3,3,10,27,06,237,29,28,51,235,38,1*78
$GIGSV,1,1,03,01,,,36,02,10,115,31,06,21,136,32,1*7E
$GPZDA,082330.00,06,06,2024,,*68
$GPGGA,082330.00,4825.1420439,N,00428.4545849,W,4,12,0.7,89.949,M,51.637,M,1.0,4095*68
$GPRMC,082330.00,A,4825.1420439,N,00428.4545849,W,0.0,0.0,060624,999.9,E,D*27
$GPVTG,000.00,T,-639.90,M,000.005,N,000.009,K,D*02
$GNGSA,A,3,26,05,29,18,27,31,16,23,,,,,1.2,0.7,1.0,1*36
$GNGSA,A,3,78,88,81,79,,,,,,,,,1.2,0.7,1.0,2*3F
$GPGSV,4,1,13,01,67,137,48,05,11,031,35,08,07,263,35,09,01,309,28,1*6D
$GPGSV,4,2,13,10,00,156,,16,60,300,46,18,61,076,47,23,17,129,40,1*66
$GPGSV,4,3,13,26,75,164,48,27,39,267,44,28,06,183,33,29,15,073,37,1*6D
$GPGSV,4,4,13,31,29,203,44,1*5E
$GSGSV,3,1,10,01,33,195,,02,34,181,39,04,28,145,41,05,29,147,,1*68
$GSGSV,3,2,10,06,33,195,,07,05,106,,08,11,114,32,17,34,167,43,1*62
$GSGSV,3,3,10,28,19,125,,39,17,237,,1*68
$GLGSV,3,1,10,70,01,332,,71,10,017,,72,04,061,32,77,11,151,,1*7C
$GLGSV,3,2,10,78,69,173,47,79,50,317,46,80,00,327,,81,41,229,45,1*78
$GLGSV,3,3,10,87,21,041,,88,79,023,46,1*7D
$GQGSV,1,1,00,1*65
$GAGSV,2,1,08,04,04,294,,09,04,339,,13,69,148,46,15,40,051,43,7*72
$GAGSV,2,2,08,18,,,37,21,86,267,46,26,24,202,38,27,37,128,42,7*4F
$GBGSV,3,1,10,05,09,110,29,08,28,037,30,11,38,056,36,13,32,049,34,1*73
$GBGSV,3,2,10,21,07,050,,22,01,003,,23,47,180,38,25,03,155,,1*70
$GBGSV,3,3,10,27,06,237,29,28,51,235,38,1*78
$GIGSV,1,1,03,01,,,36,02,10,115,30,06,21,136,32,1*7F
$GPZDA,082331.00,06,06,2024,,*69
$GPGGA,082331.00,4825.1420445,N,00428.4545863,W,4,12,0.7,89.948,M,51.637,M,2.0,4095*68
$GPRMC,082331.00,A,4825.1420445,N,00428.4545863,W,0.0,0.0,060624,999.9,E,D*25
$GPVTG,000.00,T,-639.90,M,000.003,N,000.005,K,D*08
$GNGSA,A,3,26,05,29,18,27,31,16,23,,,,,1.2,0.7,1.0,1*36
$GNGSA,A,3,78,88,81,79,,,,,,,,,1.2,0.7,1.0,2*3F
$GPGSV,4,1,13,01,67,137,48,05,11,031,35,08,07,263,35,09,01,309,28,1*6D
$GPGSV,4,2,13,10,00,156,,16,60,300,47,18,61,076,47,23,17,129,39,1*69
$GPGSV,4,3,13,26,75,164,48,27,39,267,44,28,06,183,35,29,15,073,38,1*64
$GPGSV,4,4,13,31,29,203,43,1*59
$GSGSV,3,1,10,01,33,195,,02,34,181,39,04,28,145,41,05,29,147,,1*68
$GSGSV,3,2,10,06,33,195,,07,05,106,,08,11,114,32,17,34,167,43,1*62
$GSGSV,3,3,10,28,19,125,,39,17,237,,1*68
$GLGSV,3,1,10,70,01,332,,71,10,017,,72,04,061,33,77,11,151,,1*7D
$GLGSV,3,2,10,78,69,173,47,79,50,317,46,80,00,327,,81,41,229,46,1*7B
$GLGSV,3,3,10,87,21,041,,88,79,023,46,1*7D
$GQGSV,1,1,00,1*65
$GAGSV,2,1,08,04,04,294,,09,04,339,,13,69,148,46,15,40,051,43,7*72
$GAGSV,2,2,08,18,,,37,21,86,267,47,26,24,202,39,27,37,128,42,7*4F
$GBGSV,3,1,10,05,09,110,30,08,28,037,29,11,38,056,36,13,32,049,34,1*73
$GBGSV,3,2,10,21,07,050,,22,01,003,,23,47,180,38,25,03,155,,1*70
$GBGSV,3,3,10,27,06,237,29,28,51,235,38,1*78
$GIGSV,1,1,03,01,,,36,02,10,115,30,06,21,136,33,1*7E
$GPZDA,082332.00,06,06,2024,,*6A
$GPGGA,082332.00,4825.1420449,N,00428.4545861,W,4,12,0.7,89.944,M,51.637,M,1.0,4095*6A
$GPRMC,082332.00,A,4825.1420449,N,00428.4545861,W,0.0,0.0,060624,999.9,E,D*28
$GPVTG,000.00,T,-639.90,M,000.002,N,000.003,K,D*0F
$GNGSA,A,3,26,05,29,18,27,31,16,23,,,,,1.2,0.7,1.0,1*36
$GNGSA,A,3,78,88,81,79,,,,,,,,,1.2,0.7,1.0,2*3F
$GPGSV,4,1,13,01,67,137,48,05,11,031,35,08,07,263,35,09,01,309,27,1*62
$GPGSV,4,2,13,10,00,156,,16,60,300,46,18,61,076,47,23,17,129,38,1*69
$GPGSV,4,3,13,26,75,164,48,27,39,267,44,28,06,183,35,29,15,073,37,1*6B
$GPGSV,4,4,13,31,29,203,43,1*59
$GSGSV,3,1,10,01,33,195,,02,34,181,39,04,28,145,41,05,29,147,,1*68
$GSGSV,3,2,10,06,33,195,,07,05,106,,08,11,114,31,17,34,167,43,1*61
$GSGSV,3,3,10,28,19,125,,39,17,237,,1*68
$GLGSV,3,1,10,70,01,332,,71,10,017,,72,04,061,33,77,11,151,,1*7D
$GLGSV,3,2,10,78,69,173,47,79,50,317,45,80,00,327,,81,41,229,45,1*7B
$GLGSV,3,3,10,87,21,041,,88,79,023,46,1*7D
$GQGSV,1,1,00,1*65
$GAGSV,2,1,08,04,04,294,,09,04,339,,13,69,148,46,15,40,051,42,7*73
$GAGSV,2,2,08,18,,,37,21,86,267,46,26,24,202,39,27,37,128,42,7*4E
$GBGSV,3,1,10,05,09,110,30,08,28,037,30,11,38,056,35,13,32,049,34,1*78
$GBGSV,3,2,10,21,07,050,,22,01,003,,23,47,180,38,25,03,155,,1*70
$GBGSV,3,3,10,27,06,237,29,28,51,235,38,1*78
$GIGSV,1,1,03,01,,,35,02,10,115,30,06,21,136,33,1*7D
$GPZDA,082333.00,06,06,2024,,*6B
$GPGGA,082333.00,4825.1420446,N,00428.4545858,W,4,12,0.7,89.942,M,51.637,M,2.0,4095*6B
$GPRMC,082333.00,A,4825.1420446,N,00428.4545858,W,0.0,0.0,060624,999.9,E,D*2C
$GPVTG,000.00,T,-639.90,M,000.004,N,000.008,K,D*02
$GNGSA,A,3,26,05,29,18,27,31,16,23,,,,,1.2,0.7,1.0,1*36
$GNGSA,A,3,78,88,81,79,,,,,,,,,1.2,0.7,1.0,2*3F
$GPGSV,4,1,13,01,67,137,49,05,11,031,34,08,07,263,34,09,01,309,27,1*63
$GPGSV,4,2,13,10,00,156,,16,60,300,46,18,61,076,47,23,17,129,40,1*66
$GPGSV,4,3,13,26,75,164,47,27,39,267,44,28,06,183,35,29,15,073,37,1*64
$GPGSV,4,4,13,31,29,203,43,1*59
$GSGSV,3,1,10,01,33,195,,02,34,181,39,04,28,145,42,05,29,147,,1*6B
$GSGSV,3,2,10,06,33,195,,07,05,106,,08,11,114,31,17,34,167,43,1*61
$GSGSV,3,3,10,28,19,125,,39,17,237,,1*68
$GLGSV,3,1,10,70,01,332,,71,10,017,,72,04,061,33,77,11,151,,1*7D
$GLGSV,3,2,10,78,69,173,47,79,50,317,46,80,00,327,,81,41,229,46,1*7B
$GLGSV,3,3,10,87,21,041,,88,79,023,46,1*7D
$GQGSV,1,1,00,1*65
$GAGSV,2,1,08,04,04,294,,09,04,339,,13,69,148,46,15,40,051,43,7*72
$GAGSV,2,2,08,18,,,37,21,86,267,46,26,24,202,39,27,37,128,42,7*4E
$GBGSV,3,1,10,05,09,110,30,08,28,037,31,11,38,056,36,13,32,049,34,1*7A
$GBGSV,3,2,10,21,07,050,,22,01,003,,23,47,180,38,25,03,155,,1*70
$GBGSV,3,3,10,27,06,237,29,28,51,235,39,1*79
$GIGSV,1,1,03,01,,,35,02,10,115,30,06,21,136,33,1*7D
$GPZDA,082334.00,06,06,2024,,*6C
$GPGGA,082334.00,4825.1420438,N,00428.4545857,W,4,12,0.7,89.947,M,51.637,M,3.0,4095*6E
$GPRMC,082334.00,A,4825.1420438,N,00428.4545857,W,0.0,0.0,060624,999.9,E,D*2D
$GPVTG,000.00,T,-639.90,M,000.002,N,000.003,K,D*0F
$GNGSA,A,3,26,05,29,18,27,31,16,23,,,,,1.2,0.7,1.0,1*36
$GNGSA,A,3,78,88,81,79,,,,,,,,,1.2,0.7,1.0,2*3F
$GPGSV,4,1,13,01,67,137,49,05,11,031,34,08,07,263,35,09,01,309,27,1*62
$GPGSV,4,2,13,10,00,156,,16,60,300,46,18,61,076,47,23,17,129,38,1*69
$GPGSV,4,3,13,26,75,164,47,27,39,267,44,28,06,183,35,29,15,073,38,1*6B
$GPGSV,4,4,13,31,29,203,43,1*59
$GSGSV,3,1,10,01,33,195,,02,34,181,39,04,28,145,42,05,29,147,,1*6B
$GSGSV,3,2,10,06,33,195,,07,05,106,,08,11,114,31,17,34,167,44,1*66
$GSGSV,3,3,10,28,19,125,,39,17,237,,1*68
$GLGSV,3,1,10,70,01,332,,71,10,017,,72,04,061,32,77,11,151,,1*7C
$GLGSV,3,2,10,78,69,173,48,79,50,317,46,80,00,327,,81,41,229,46,1*74
$GLGSV,3,3,10,87,21,041,,88,79,023,46,1*7D
$GQGSV,1,1,00,1*65
$GAGSV,2,1,08,04,04,294,,09,04,339,,13,69,148,46,15,40,051,43,7*72
$GAGSV,2,2,08,18,,,37,21,86,267,46,26,24,202,39,27,37,128,42,7*4E
$GBGSV,3,1,10,05,09,110,29,08,28,037,30,11,38,056,36,13,32,049,34,1*73
$GBGSV,3,2,10,21,07,050,,22,01,003,,23,47,180,38,25,03,155,,1*70
$GBGSV,3,3,10,27,06,237,29,28,51,235,39,1*79
$GIGSV,1,1,03,01,,,36,02,10,115,30,06,21,136,33,1*7E
$GPZDA,082335.00,06,06,2024,,*6D
$GPGGA,082335.00,4825.1420436,N,00428.4545846,W,4,12,0.7,89.953,M,51.637,M,1.0,4095*66
$GPRMC,082335.00,A,4825.1420436,N,00428.4545846,W,0.0,0.0,060624,999.9,E,D*22
$GPVTG,000.00,T,-639.90,M,000.008,N,000.014,K,D*03
$GNGSA,A,3,26,05,29,18,27,31,16,23,,,,,1.2,0.7,1.0,1*36
$GNGSA,A,3,78,88,81,79,,,,,,,,,1.2,0.7,1.0,2*3F
$GPGSV,4,1,13,01,67,137,48,05,11,031,33,08,07,263,33,09,01,309,28,1*6D
$GPGSV,4,2,13,10,00,156,,16,60,300,46,18,61,076,46,23,17,129,40,1*67
$GPGSV,4,3,13,26,75,164,47,27,39,267,44,28,06,183,35,29,15,073,38,1*6B
$GPGSV,4,4,13,31,29,203,43,1*59
$GSGSV,3,1,10,01,33,195,,02,34,181,39,04,28,145,42,05,29,147,,1*6B
$GSGSV,3,2,10,06,33,195,,07,05,106,,08,11,114,31,17,34,167,44,1*66
$GSGSV,3,3,10,28,19,125,,39,17,237,,1*68
$GLGSV,3,1,10,70,01,332,,71,10,017,,72,04,061,32,77,11,151,,1*7C
$GLGSV,3,2,10,78,69,173,47,79,50,317,46,80,00,327,,81,41,229,46,1*7B
$GLGSV,3,3,10,87,21,041,,88,79,023,46,1*7D
$GQGSV,1,1,00,1*65
$GAGSV,2,1,08,04,04,294,,09,04,339,,13,69,148,45,15,40,051,43,7*71
$GAGSV,2,2,08,18,,,37,21,86,267,47,26,24,202,38,27,37,128,41,7*4D
$GBGSV,3,1,10,05,09,110,28,08,28,037,30,11,38,056,36,13,32,049,34,1*72
$GBGSV,3,2,10,21,07,050,,22,01,003,,23,47,180,38,25,03,155,,1*70
$GBGSV,3,3,10,27,06,237,30,28,51,235,39,1*71
$GIGSV,1,1,03,01,,,35,02,10,115,29,06,21,136,32,1*74
$GPZDA,082336.00,06,06,2024,,*6E
$GPGGA,082336.00,4825.1420435,N,00428.4545863,W,4,12,0.7,89.948,M,51.637,M,1.0,4095*6B
$GPRMC,082336.00,A,4825.1420435,N,00428.4545863,W,0.0,0.0,060624,999.9,E,D*25
$GPVTG,000.00,T,-639.90,M,000.004,N,000.008,K,D*02
$GNGSA,A,3,26,05,29,18,27,31,16,23,,,,,1.2,0.7,1.0,1*36
$GNGSA,A,3,78,88,81,79,,,,,,,,,1.2,0.7,1.0,2*3F
$GPGSV,4,1,13,01,67,137,48,05,11,031,34,08,07,263,33,09,01,309,27,1*65
$GPGSV,4,2,13,10,00,156,,16,60,300,46,18,61,076,46,23,17,129,40,1*67
$GPGSV,4,3,13,26,75,164,47,27,39,267,43,28,06,183,34,29,15,073,37,1*62
$GPGSV,4,4,13,31,29,203,43,1*59
$GSGSV,3,1,10,01,33,195,,02,34,181,40,04,28,145,41,05,29,147,,1*66
$GSGSV,3,2,10,06,33,195,,07,05,106,,08,11,114,31,17,34,167,43,1*61
$GSGSV,3,3,10,28,19,125,,39,17,237,,1*68
$GLGSV,3,1,10,70,01,332,,71,10,017,,72,04,061,31,77,11,151,,1*7F
$GLGSV,3,2,10,78,69,173,47,79,50,317,46,80,00,327,,81,41,229,45,1*78
$GLGSV,3,3,10,87,21,041,,88,79,023,45,1*7E
$GQGSV,1,1,00,1*65
$GAGSV,2,1,08,04,04,294,,09,04,339,,13,69,148,45,15,40,051,43,7*71
$GAGSV,2,2,08,18,,,37,21,86,267,46,26,24,202,38,27,37,128,42,7*4F
$GBGSV,3,1,10,05,09,110,28,08,28,037,30,11,38,056,36,13,32,049,34,1*72
$GBGSV,3,2,10,21,07,050,,22,01,003,,23,47,180,38,25,03,155,,1*70
$GBGSV,3,3,10,27,06,237,29,28,51,235,39,1*79
$GIGSV,1,1,03,01,,,35,02,10,115,30,06,21,136,32,1*7C
$GPZDA,082337.00,06,06,2024,,*6F
$GPGGA,082337.00,4825.1420430,N,00428.4545870,W,4,12,0.7,89.944,M,51.637,M,2.0,4095*62
$GPRMC,082337.00,A,4825.1420430,N,00428.4545870,W,0.0,0.0,060624,999.9,E,D*23
$GPVTG,000.00,T,-639.90,M,000.002,N,000.004,K,D*08
$GNGSA,A,3,26,05,29,18,27,31,16,23,,,,,1.2,0.7,1.0,1*36
$GNGSA,A,3,78,88,81,79,,,,,,,,,1.2,0.7,1.0,2*3F
$GPGSV,4,1,13,01,67,137,48,05,11,031,34,08,07,263,34,09,01,309,28,1*6D
$GPGSV,4,2,13,10,00,156,,16,60,300,46,18,61,076,46,23,17,129,39,1*69
$GPGSV,4,3,13,26,75,164,47,27,39,267,43,28,06,183,35,29,15,073,37,1*63
$GPGSV,4,4,13,31,29,203,43,1*59
$GSGSV,3,1,10,01,33,195,,02,34,181,40,04,28,145,40,05,29,147,,1*67
$GSGSV,3,2,10,06,33,195,,07,05,106,,08,11,114,30,17,34,167,42,1*61
$GSGSV,3,3,10,28,19,125,,39,17,237,,1*68
$GLGSV,3,1,10,70,01,332,,71,10,017,,72,04,061,31,77,11,151,,1*7F
$GLGSV,3,2,10,78,69,173,47,79,50,317,46,80,00,327,,81,41,229,45,1*78
$GLGSV,3,3,10,87,21,041,,88,79,024,45,1*79
$GQGSV,1,1,00,1*65
$GAGSV,2,1,08,04,04,294,,09,04,339,,13,69,148,46,15,39,051,42,7*7D
$GAGSV,2,2,08,18,,,36,21,86,267,46,26,24,202,39,27,37,128,42,7*4F
$GBGSV,3,1,10,05,09,110,28,08,28,037,30,11,38,056,36,13,32,049,33,1*75
$GBGSV,3,2,10,21,07,050,,22,01,003,,23,47,180,38,25,03,155,,1*70
$GBGSV,3,3,10,27,06,237,30,28,51,235,39,1*71
$GIGSV,1,1,03,01,,,35,02,10,115,29,06,21,136,33,1*75
$GPZDA,082338.00,06,06,2024,,*60
$GPGGA,082338.00,4825.1420427,N,00428.4545878,W,4,12,0.7,89.940,M,51.637,M,2.0,4095*67
$GPRMC,082338.00,A,4825.1420427,N,00428.4545878,W,0.0,0.0,060624,999.9,E,D*22
$GPVTG,000.00,T,-639.90,M,000.002,N,000.003,K,D*0F
$GNGSA,A,3,26,05,29,18,27,31,16,23,,,,,1.2,0.7,1.0,1*36
$GNGSA,A,3,78,88,81,79,,,,,,,,,1.2,0.7,1.0,2*3F
$GPGSV,4,1,13,01,67,137,48,05,11,031,34,08,07,263,33,09,01,309,28,1*6A
$GPGSV,4,2,13,10,00,156,,16,60,300,46,18,61,076,46,23,17,129,39,1*69
$GPGSV,4,3,13,26,75,164,47,27,39,267,43,28,06,183,35,29,15,073,37,1*63
$GPGSV,4,4,13,31,29,203,42,1*58
$GSGSV,3,1,10,01,33,195,,02,34,181,40,04,28,145,40,05,29,147,,1*67
$GSGSV,3,2,10,06,33,195,,07,05,106,,08,11,114,31,17,34,167,42,1*60
$GSGSV,3,3,10,28,19,125,,39,17,237,,1*68
$GLGSV,3,1,10,70,01,332,,71,10,017,,72,04,061,30,77,11,151,,1*7E
$GLGSV,3,2,10,78,69,173,47,79,50,317,46,80,00,327,,81,41,229,45,1*78
$GLGSV,3,3,10,87,21,041,,88,79,024,45,1*79
$GQGSV,1,1,00,1*65
$GAGSV,2,1,08,04,04,294,,09,04,339,,13,69,148,45,15,39,051,42,7*7E
$GAGSV,2,2,08,18,,,36,21,86,267,46,26,24,202,39,27,37,128,41,7*4C
$GBGSV,3,1,10,05,09,110,29,08,28,037,30,11,38,056,36,13,32,049,33,1*74
$GBGSV,3,2,10,21,07,050,,22,01,003,,23,47,180,39,25,03,155,,1*71
$GBGSV,3,3,10,27,06,237,30,28,51,235,39,1*71
$GIGSV,1,1,03,01,,,35,02,10,115,29,06,21,136,32,1*74
$GPZDA,082339.00,06,06,2024,,*61
$GPGGA,082339.00,4825.1420441,N,00428.4545854,W,4,12,0.7,89.948,M,51.637,M,1.0,4095*63
$GPRMC,082339.00,A,4825.1420441,N,00428.4545854,W,0.0,0.0,060624,999.9,E,D*2D
$GPVTG,000.00,T,-639.90,M,000.009,N,000.017,K,D*01
$GNGSA,A,3,26,05,29,18,27,31,16,23,,,,,1.2,0.7,1.0,1*36
$GNGSA,A,3,78,88,81,79,,,,,,,,,1.2,0.7,1.0,2*3F
$GPGSV,4,1,13,01,67,137,48,05,11,031,34,08,07,263,33,09,01,309,28,1*6A
$GPGSV,4,2,13,10,00,156,,16,60,300,46,18,61,076,46,23,17,129,39,1*69
$GPGSV,4,3,13,26,75,164,47,27,39,267,42,28,06,183,35,29,15,073,37,1*62
$GPGSV,4,4,13,31,29,203,42,1*58
$GSGSV,3,1,10,01,33,195,,02,34,181,40,04,28,145,41,05,29,147,,1*66
$GSGSV,3,2,10,06,33,195,,07,05,106,,08,11,114,31,17,34,167,42,1*60
$GSGSV,3,3,10,28,19,125,,39,17,237,,1*68
$GLGSV,3,1,10,70,01,332,,71,10,017,,72,04,061,30,77,11,151,,1*7E
$GLGSV,3,2,10,78,69,173,46,79,50,317,45,80,00,327,,81,41,229,45,1*7A
$GLGSV,3,3,10,87,21,041,,88,79,024,45,1*79
$GQGSV,1,1,00,1*65
$GAGSV,2,1,08,04,04,294,,09,04,339,,13,69,148,45,15,39,051,42,7*7E
$GAGSV,2,2,08,18,,,36,21,86,267,46,26,24,202,39,27,37,128,41,7*4C
$GBGSV,3,1,10,05,09,110,29,08,28,037,30,11,38,056,36,13,32,049,34,1*73
$GBGSV,3,2,10,21,07,050,,22,01,003,,23,47,180,39,25,03,155,,1*71
$GBGSV,3,3,10,27,06,237,30,28,51,235,39,1*71
$GIGSV,1,1,03,01,,,35,02,10,115,30,06,21,136,32,1*7C
$GPZDA,082340.00,06,06,2024,,*6F
$GPGGA,082340.00,4825.1420434,N,00428.4545859,W,4,12,0.7,89.949,M,51.637,M,1.0,4095*63
$GPRMC,082340.00,A,4825.1420434,N,00428.4545859,W,0.0,0.0,060624,999.9,E,D*2C
$GPVTG,000.00,T,-639.90,M,000.005,N,000.009,K,D*02
$GNGSA,A,3,26,05,29,18,27,31,16,23,,,,,1.2,0.7,1.0,1*36
$GNGSA,A,3,78,88,81,79,,,,,,,,,1.2,0.7,1.0,2*3F
$GPGSV,4,1,13,01,67,137,48,05,11,031,34,08,07,263,33,09,01,309,28,1*6A
$GPGSV,4,2,13,10,00,156,,16,60,300,47,18,61,076,46,23,17,129,40,1*66
$GPGSV,4,3,13,26,75,164,48,27,39,267,43,28,06,183,36,29,15,073,38,1*60
$GPGSV,4,4,13,31,29,203,43,1*59
$GSGSV,3,1,10,01,33,195,,02,34,181,40,04,28,145,41,05,29,147,,1*66
$GSGSV,3,2,10,06,33,195,,07,05,106,,08,11,114,31,17,34,167,43,1*61
$GSGSV,3,3,10,28,19,125,,39,17,237,,1*68
$GLGSV,3,1,10,70,01,332,,71,10,017,,72,04,061,31,77,11,151,,1*7F
$GLGSV,3,2,10,78,69,173,47,79,50,317,46,80,00,327,,81,41,229,45,1*78
$GLGSV,3,3,10,87,21,041,,88,79,024,46,1*7A
$GQGSV,1,1,00,1*65
$GAGSV,2,1,08,04,04,294,,09,04,339,,13,69,148,46,15,39,051,43,7*7C
$GAGSV,2,2,08,18,,,37,21,86,266,46,26,24,202,39,27,37,128,42,7*4F
$GBGSV,3,1,10,05,09,110,30,08,28,037,31,11,38,056,36,13,32,049,34,1*7A
$GBGSV,3,2,10,21,07,050,,22,01,003,,23,47,180,39,25,03,155,,1*71
$GBGSV,3,3,10,27,06,237,30,28,51,235,39,1*71
$GIGSV,1,1,03,01,,,35,02,10,115,30,06,21,136,32,1*7C
$GPZDA,082341.00,06,06,2024,,*6E
$GPGGA,082341.00,4825.1420427,N,00428.4545860,W,4,12,0.7,89.950,M,51.637,M,2.0,4095*61
$GPRMC,082341.00,A,4825.1420427,N,00428.4545860,W,0.0,0.0,060624,999.9,E,D*25
$GPVTG,000.00,T,-639.90,M,000.007,N,000.012,K,D*0A
$GNGSA,A,3,26,05,29,18,27,31,16,23,,,,,1.2,0.7,1.0,1*36
$GNGSA,A,3,78,88,81,79,,,,,,,,,1.2,0.7,1.0,2*3F
$GPGSV,4,1,13,01,67,137,48,05,11,031,35,08,07,263,34,09,01,309,29,1*6D
$GPGSV,4,2,13,10,00,156,,16,60,300,47,18,61,076,46,23,17,129,40,1*66
$GPGSV,4,3,13,26,74,164,48,27,39,267,43,28,06,183,36,29,15,073,38,1*61
$GPGSV,4,4,13,31,29,203,43,1*59
$GSGSV,3,1,10,01,33,195,,02,34,181,40,04,28,145,41,05,29,147,,1*66
$GSGSV,3,2,10,06,33,195,,07,05,106,,08,11,114,31,17,34,167,43,1*61
$GSGSV,3,3,10,28,19,125,,39,17,237,,1*68
$GLGSV,3,1,10,70,01,332,,71,10,017,,72,04,061,31,77,11,151,,1*7F
$GLGSV,3,2,10,78,69,173,47,79,50,317,46,80,00,327,,81,41,229,45,1*78
$GLGSV,3,3,10,87,21,041,,88,79,024,46,1*7A
$GQGSV,1,1,00,1*65
$GAGSV,2,1,08,04,04,294,,09,04,339,,13,69,148,46,15,39,051,43,7*7C
$GAGSV,2,2,08,18,,,37,21,86,266,47,26,24,202,39,27,37,128,42,7*4E
$GBGSV,3,1,10,05,09,110,30,08,28,037,30,11,38,056,37,13,32,049,34,1*7A
$GBGSV,3,2,10,21,07,050,,22,01,003,,23,47,180,40,25,03,155,,1*7F
$GBGSV,3,3,10,27,06,237,30,28,51,235,39,1*71
$GIGSV,1,1,03,01,,,35,02,10,115,29,06,21,136,32,1*74
$GPZDA,082342.00,06,06,2024,,*6D
$GPGGA,082342.00,4825.1420442,N,00428.4545851,W,4,12,0.7,89.949,M,51.637,M,1.0,4095*68
$GPRMC,082342.00,A,4825.1420442,N,00428.4545851,W,0.0,0.0,060624,999.9,E,D*27
$GPVTG,000.00,T,-639.90,M,000.008,N,000.015,K,D*02
$GNGSA,A,3,26,05,29,18,27,31,16,23,,,,,1.2,0.7,1.0,1*36
$GNGSA,A,3,78,88,81,79,,,,,,,,,1.2,0.7,1.0,2*3F
$GPGSV,4,1,13,01,67,137,48,05,11,031,34,08,07,263,34,09,01,309,28,1*6D
$GPGSV,4,2,13,10,00,156,,16,60,300,46,18,61,076,46,23,17,129,40,1*67
$GPGSV,4,3,13,26,74,164,48,27,39,267,43,28,06,183,35,29,15,073,38,1*62
$GPGSV,4,4,13,31,29,203,43,1*59
$GSGSV,3,1,10,01,33,195,,02,34,181,40,04,28,145,41,05,29,147,,1*66
$GSGSV,3,2,10,06,33,195,,07,05,106,,08,11,114,30,17,34,167,43,1*60
$GSGSV,3,3,10,28,19,125,,39,17,237,,1*68
$GLGSV,3,1,10,70,01,332,,71,10,017,,72,04,061,31,77,11,151,,1*7F
$GLGSV,3,2,10,78,69,173,47,79,50,317,46,80,00,327,,81,41,229,45,1*78
$GLGSV,3,3,10,87,21,041,,88,79,024,45,1*79
$GQGSV,1,1,00,1*65
$GAGSV,2,1,08,04,04,294,,09,04,339,,13,69,148,46,15,39,051,42,7*7D
$GAGSV,2,2,08,18,,,38,21,86,266,46,26,24,202,39,27,37,128,42,7*40
$GBGSV,3,1,10,05,09,110,29,08,28,037,31,11,38,056,37,13,32,049,34,1*73
$GBGSV,3,2,10,21,07,050,,22,01,003,,23,47,180,39,25,03,155,,1*71
$GBGSV,3,3,10,27,06,237,30,28,51,235,39,1*71
$GIGSV,1,1,03,01,,,35,02,10,115,29,06,21,136,31,1*77
$GPZDA,082343.00,06,06,2024,,*6C
$GPGGA,082343.00,4825.1420438,N,00428.4545877,W,4,12,0.7,89.947,M,51.637,M,1.0,4095*6E
$GPRMC,082343.00,A,4825.1420438,N,00428.4545877,W,0.0,0.0,060624,999.9,E,D*2F
$GPVTG,000.00,T,-639.90,M,000.003,N,000.006,K,D*0B
$GNGSA,A,3,26,05,29,18,27,31,16,23,,,,,1.2,0.7,1.0,1*36
$GNGSA,A,3,78,88,81,79,,,,,,,,,1.2,0.7,1.0,2*3F
$GPGSV,4,1,13,01,67,137,48,05,11,031,34,08,07,263,34,09,01,309,28,1*6D
$GPGSV,4,2,13,10,00,156,,16,60,300,46,18,61,076,47,23,17,129,40,1*66
$GPGSV,4,3,13,26,74,164,48,27,39,267,43,28,06,183,35,29,15,073,38,1*62
$GPGSV,4,4,13,31,29,203,43,1*59
$GSGSV,3,1,10,01,33,195,,02,34,181,40,04,28,145,41,05,29,147,,1*66
$GSGSV,3,2,10,06,33,195,,07,05,106,,08,11,114,31,17,34,167,42,1*60
$GSGSV,3,3,10,28,19,125,,39,17,237,,1*68
$GLGSV,3,1,10,70,01,332,,71,10,017,,72,04,061,31,77,11,151,,1*7F
$GLGSV,3,2,10,78,69,173,47,79,50,317,46,80,00,327,,81,41,229,44,1*79
$GLGSV,3,3,10,87,21,041,,88,79,024,45,1*79
$GQGSV,1,1,00,1*65
$GAGSV,2,1,08,04,04,294,,09,04,339,,13,69,148,46,15,39,051,43,7*7C
$GAGSV,2,2,08,18,,,38,21,86,266,47,26,24,202,38,27,37,128,42,7*40
$GBGSV,3,1,10,05,09,110,28,08,28,037,31,11,38,056,36,13,32,049,34,1*73
$GBGSV,3,2,10,21,07,050,,22,01,003,,23,47,180,39,25,03,155,,1*71
$GBGSV,3,3,10,27,06,237,31,28,51,235,39,1*70
$GIGSV,1,1,03,01,,,35,02,10,115,28,06,21,136,31,1*76
$GPZDA,082344.00,06,06,2024,,*6B
$GPGGA,082344.00,4825.1420419,N,00428.4545873,W,4,12,0.7,89.951,M,51.637,M,2.0,4095*6A
$GPRMC,082344.00,A,4825.1420419,N,00428.4545873,W,0.0,0.0,060624,999.9,E,D*2F
$GPVTG,000.00,T,-639.90,M,000.005,N,000.010,K,D*0A
$GNGSA,A,3,26,05,29,18,27,31,16,23,,,,,1.2,0.7,1.0,1*36
$GNGSA,A,3,78,88,81,79,,,,,,,,,1.2,0.7,1.0,2*3F
$GPGSV,4,1,13,01,67,137,48,05,11,031,33,08,07,263,35,09,01,309,30,1*62
$GPGSV,4,2,13,10,00,156,,16,60,300,46,18,61,076,47,23,17,129,40,1*66
$GPGSV,4,3,13,26,74,164,48,27,39,267,44,28,06,183,35,29,15,073,38,1*65
$GPGSV,4,4,13,31,29,203,43,1*59
$GSGSV,3,1,10,01,33,195,,02,34,181,40,04,28,145,41,05,29,147,,1*66
$GSGSV,3,2,10,06,33,195,,07,05,106,,08,11,114,31,17,34,167,42,1*60
$GSGSV,3,3,10,28,19,125,,39,17,237,,1*68
$GLGSV,3,1,10,70,01,332,,71,10,017,,72,04,061,31,77,11,151,,1*7F
$GLGSV,3,2,10,78,69,173,46,79,50,317,46,80,00,327,,81,41,229,44,1*78
$GLGSV,3,3,10,87,21,041,,88,79,024,46,1*7A
$GQGSV,1,1,00,1*65
$GAGSV,2,1,08,04,04,294,,09,04,339,,13,69,148,46,15,39,051,43,7*7C
$GAGSV,2,2,08,18,,,38,21,86,266,46,26,24,202,39,27,37,128,42,7*40
$GBGSV,3,1,10,05,09,110,28,08,28,037,31,11,38,056,37,13,32,049,34,1*72
$GBGSV,3,2,10,21,07,050,,22,01,003,,23,47,180,39,25,03,155,,1*71
$GBGSV,3,3,10,27,06,237,31,28,51,235,40,1*7E
$GIGSV,1,1,03,01,,,34,02,10,115,28,06,21,136,31,1*77
$GPZDA,082345.00,06,06,2024,,*6A
$GPGGA,082345.00,4825.1420425,N,00428.4545878,W,4,12,0.7,89.954,M,51.637,M,3.0,4095*6B
$GPRMC,082345.00,A,4825.1420425,N,00428.4545878,W,0.0,0.0,060624,999.9,E,D*2A
$GPVTG,000.00,T,-639.90,M,000.003,N,000.006,K,D*0B
$GNGSA,A,3,26,05,29,18,27,31,16,23,,,,,1.2,0.7,1.0,1*36
$GNGSA,A,3,78,88,81,79,,,,,,,,,1.2,0.7,1.0,2*3F
$GPGSV,4,1,13,01,67,137,49,05,11,031,34,08,07,263,34,09,01,309,29,1*6D
$GPGSV,4,2,13,10,00,156,,16,60,300,47,18,61,076,47,23,17,129,40,1*67
$GPGSV,4,3,13,26,74,164,48,27,39,267,44,28,06,183,35,29,15,073,38,1*65
$GPGSV,4,4,13,31,29,203,43,1*59
$GSGSV,3,1,10,01,33,195,,02,34,181,40,04,28,145,41,05,29,147,,1*66
$GSGSV,3,2,10,06,33,195,,07,05,106,,08,11,114,31,17,34,167,42,1*60
$GSGSV,3,3,10,28,19,125,,39,17,237,,1*68
$GLGSV,3,1,10,70,01,332,,71,10,017,,72,04,061,31,77,11,151,,1*7F
$GLGSV,3,2,10,78,69,173,47,79,50,317,46,80,00,327,,81,41,229,45,1*78
$GLGSV,3,3,10,87,21,041,,88,79,024,46,1*7A
$GQGSV,1,1,00,1*65
$GAGSV,2,1,08,04,04,294,,09,04,339,,13,69,148,46,15,39,051,43,7*7C
$GAGSV,2,2,08,18,,,38,21,86,266,46,26,24,202,39,27,37,128,42,7*40
$GBGSV,3,1,10,05,09,110,28,08,28,037,30,11,38,056,36,13,32,049,34,1*72
$GBGSV,3,2,10,21,07,050,,22,01,003,,23,47,180,39,25,03,155,,1*71
$GBGSV,3,3,10,27,06,237,30,28,51,235,40,1*7F
$GIGSV,1,1,03,01,,,33,02,10,115,28,06,21,136,31,1*70
$GPZDA,082346.00,06,06,2024,,*69
$GPGGA,082346.00,4825.1420452,N,00428.4545860,W,4,12,0.7,89.945,M,51.637,M,1.0,4095*63
$GPRMC,082346.00,A,4825.1420452,N,00428.4545860,W,0.0,0.0,060624,999.9,E,D*20
$GPVTG,000.00,T,-639.90,M,000.006,N,000.012,K,D*0B
$GNGSA,A,3,26,05,29,18,27,31,16,23,,,,,1.2,0.7,1.0,1*36
$GNGSA,A,3,78,88,81,79,,,,,,,,,1.2,0.7,1.0,2*3F
$GPGSV,4,1,13,01,67,137,48,05,11,031,33,08,07,263,34,09,01,309,29,1*6B
$GPGSV,4,2,13,10,00,156,,16,60,300,46,18,61,076,47,23,17,129,40,1*66
$GPGSV,4,3,13,26,74,164,48,27,39,267,44,28,06,183,35,29,15,073,38,1*65
$GPGSV,4,4,13,31,29,203,42,1*58
$GSGSV,3,1,10,01,33,195,,02,34,181,40,04,28,145,41,05,29,147,,1*66
$GSGSV,3,2,10,06,33,195,,07,05,106,,08,11,114,31,17,34,167,42,1*60
$GSGSV,3,3,10,28,19,125,,39,17,237,,1*68
$GLGSV,3,1,10,70,01,332,,71,10,017,,72,04,061,32,77,11,151,,1*7C
$GLGSV,3,2,10,78,69,173,47,79,50,317,46,80,00,327,,81,41,229,45,1*78
$GLGSV,3,3,10,87,21,041,,88,79,024,45,1*79
$GQGSV,1,1,00,1*65
$GAGSV,2,1,08,04,04,294,,09,04,339,,13,69,148,45,15,39,051,43,7*7F
$GAGSV,2,2,08,18,,,38,21,86,266,46,26,24,202,38,27,37,128,42,7*41
$GBGSV,3,1,10,05,09,110,28,08,28,037,30,11,38,056,36,13,32,049,34,1*72
$GBGSV,3,2,10,21,07,050,,22,01,003,,23,47,180,39,25,03,155,,1*71
$GBGSV,3,3,10,27,06,237,30,28,51,235,40,1*7F
$GIGSV,1,1,03,01,,,34,02,10,115,29,06,21,136,31,1*76
$GPZDA,082347.00,06,06,2024,,*68
$GPGGA,082347.00,4825.1420447,N,00428.4545872,W,4,12,0.7,89.943,M,51.637,M,1.0,4095*63
$GPRMC,082347.00,A,4825.1420447,N,00428.4545872,W,0.0,0.0,060624,999.9,E,D*26
$GPVTG,000.00,T,-639.90,M,000.003,N,000.006,K,D*0B
$GNGSA,A,3,26,05,29,18,27,31,16,23,,,,,1.2,0.7,1.0,1*36
$GNGSA,A,3,78,88,81,79,,,,,,,,,1.2,0.7,1.0,2*3F
$GPGSV,4,1,13,01,67,137,48,05,11,031,33,08,07,263,34,09,01,309,30,1*63
$GPGSV,4,2,13,10,00,156,,16,60,300,47,18,61,076,47,23,17,129,40,1*67
$GPGSV,4,3,13,26,74,164,48,27,39,267,44,28,06,183,36,29,15,073,38,1*66
$GPGSV,4,4,13,31,29,203,43,1*59
$GSGSV,3,1,10,01,33,195,,02,34,181,40,04,28,145,41,05,29,147,,1*66
$GSGSV,3,2,10,06,33,195,,07,05,106,,08,11,114,29,17,34,167,43,1*68
$GSGSV,3,3,10,28,19,125,,39,17,237,,1*68
$GLGSV,3,1,10,70,01,332,,71,10,017,,72,04,061,31,77,11,151,,1*7F
$GLGSV,3,2,10,78,69,173,47,79,50,317,46,80,00,327,,81,41,229,45,1*78
$GLGSV,3,3,10,87,21,041,,88,79,024,46,1*7A
$GQGSV,1,1,00,1*65
$GAGSV,2,1,08,04,04,294,,09,04,339,,13,69,148,46,15,39,051,43,7*7C
$GAGSV,2,2,08,18,,,38,21,86,266,46,26,24,202,39,27,37,128,42,7*40
$GBGSV,3,1,10,05,09,110,29,08,28,037,30,11,38,056,36,13,32,049,34,1*73
$GBGSV,3,2,10,21,07,050,,22,01,003,,23,47,180,39,25,03,155,,1*71
$GBGSV,3,3,10,27,06,237,31,28,51,235,40,1*7E
$GIGSV,1,1,03,01,,,35,02,10,115,31,06,21,136,32,1*7D
$GPZDA,082348.00,06,06,2024,,*67
$GPGGA,082348.00,4825.1420456,N,00428.4545875,W,4,12,0.7,89.938,M,51.637,M,2.0,4095*64
$GPRMC,082348.00,A,4825.1420456,N,00428.4545875,W,0.0,0.0,060624,999.9,E,D*2E
$GPVTG,000.00,T,-639.90,M,000.001,N,000.002,K,D*0D
$GNGSA,A,3,26,05,29,18,27,31,16,23,,,,,1.2,0.7,1.0,1*36
$GNGSA,A,3,78,88,81,79,,,,,,,,,1.2,0.7,1.0,2*3F
$GPGSV,4,1,13,01,67,137,48,05,11,031,33,08,07,263,34,09,01,309,30,1*63
$GPGSV,4,2,13,10,00,156,,16,60,300,47,18,61,076,47,23,17,129,40,1*67
$GPGSV,4,3,13,26,74,163,48,27,39,267,44,28,06,183,34,29,15,073,38,1*63
$GPGSV,4,4,13,31,29,203,42,1*58
$GSGSV,3,1,10,01,33,195,,02,34,181,40,04,28,145,41,05,29,147,,1*66
$GSGSV,3,2,10,06,33,195,,07,05,106,,08,11,114,30,17,34,167,43,1*60
$GSGSV,3,3,10,28,19,125,,39,17,237,,1*68
$GLGSV,3,1,10,70,01,332,,71,10,017,,72,04,061,31,77,11,151,,1*7F
$GLGSV,3,2,10,78,69,173,47,79,50,317,46,80,00,327,,81,41,229,45,1*78
$GLGSV,3,3,10,87,21,041,,88,79,024,46,1*7A
$GQGSV,1,1,00,1*65
$GAGSV,2,1,08,04,04,294,,09,04,339,,13,69,148,46,15,39,051,43,7*7C
$GAGSV,2,2,08,18,,,38,21,86,266,47,26,24,202,39,27,37,128,42,7*41
$GBGSV,3,1,10,05,09,110,30,08,28,037,30,11,38,056,36,13,32,049,34,1*7B
$GBGSV,3,2,10,21,07,050,,22,01,003,,23,47,180,39,25,03,155,,1*71
$GBGSV,3,3,10,27,06,237,30,28,51,235,39,1*71
$GIGSV,1,1,03,01,,,34,02,10,115,30,06,21,136,31,1*7E
