$GNGSA,A,3,26,05,29,18,27,31,16,28,,,,,1.1,0.6,0.9,1*37
$GNGSA,A,3,78,88,79,77,,,,,,,,,1.1,0.6,0.9,2*3C
$GPGSV,4,1,13,01,78,130,51,04,05,282,30,05,14,040,39,09,04,317,37,1*63
$GPGSV,4,2,13,16,50,300,47,18,64,098,47,20,00,018,,23,09,135,43,1*68
$GPGSV,4,3,13,26,84,194,52,27,30,260,41,28,15,185,33,29,24,068,41,1*61
$GNGSA,A,3,26,05,29,18,27,31,16,28,,,,,1.1,0.6,0.9,1*37
$GNGSA,A,3,78,88,79,77,,,,,,,,,1.1,0.6,0.9,2*3C
$GPGSV,4,1,13,01,78,130,50,04,05,282,31,05,14,039,40,09,04,317,40,1*63
$GPGSV,4,2,13,16,51,300,46,18,64,097,46,20,00,018,,23,10,134,43,1*6F
$GPGSV,4,3,13,26,84,193,51,27,30,260,43,28,15,185,39,29,23,068,42,1*69
$GPGSV,4,4,13,31,38,207,46,1*58
$GSGSV,3,1,11,01,33,195,,02,34,181,,04,28,145,45,05,29,147,,1*67
$GSGSV,3,2,11,06,33,195,,07,05,106,,08,11,114,,17,34,167,,1*65
$GSGSV,3,3,11,28,19,125,,29,-35,054,34,39,17,237,,1*7F
$GLGSV,2,1,08,70,06,341,,71,08,026,,77,21,147,34,78,82,182,52,1*71
$GLGSV,2,2,08,79,39,320,45,81,31,221,,87,31,039,,88,88,245,45,1*7B
$GQGSV,1,1,00,1*65
$GAGSV,2,1,08,04,08,300,40,09,03,345,,13,61,159,48,15,46,056,47,7*79
$GAGSV,2,2,08,18,,,40,21,79,301,48,26,16,199,41,27,44,122,46,7*44
$GBGSV,3,1,09,05,09,111,34,08,28,040,39,11,47,055,45,13,32,053,40,1*78
$GBGSV,3,2,09,21,04,057,38,22,02,010,,23,57,182,48,25,11,153,36,1*72
$GBGSV,3,3,09,28,42,229,46,1*48
$GIGSV,1,1,01,06,24,135,,1*4B
$GPZDA,080222.00,06,06,2024,,*68
$GPGGA,080222.00,4825.0750455,N,00428.3604080,W,4,12,0.6,98.784,M,51.637,M,2.0,4095*66
$GPRMC,080222.00,A,4825.0750455,N,00428.3604080,W,0.0,0.0,060624,999.9,E,D*24
$GPVTG,000.00,T,-639.90,M,000.001,N,000.001,K,D*0E
$GNGSA,A,3,26,05,29,18,27,31,16,28,,,,,1.1,0.6,0.9,1*37
$GNGSA,A,3,78,88,79,77,,,,,,,,,1.1,0.6,0.9,2*3C
$GPGSV,4,1,13,01,78,130,51,04,05,282,32,05,14,039,40,09,04,317,39,1*6F
$GPGSV,4,2,13,16,51,300,47,18,64,097,46,20,00,018,,23,10,134,43,1*6E
$GPGSV,4,3,13,26,84,193,51,27,30,260,43,28,15,185,39,29,23,068,42,1*69
$GPGSV,4,4,13,31,38,207,47,1*59
$GSGSV,3,1,11,01,33,195,,02,34,181,,04,28,145,45,05,29,147,,1*67
$GSGSV,3,2,11,06,33,195,,07,05,106,,08,11,114,,17,34,167,,1*65
$GSGSV,3,3,11,28,19,125,,29,-35,054,34,39,17,237,,1*7F
$GLGSV,2,1,08,70,06,341,,71,08,026,,77,21,147,34,78,82,182,52,1*71
$GLGSV,2,2,08,79,39,320,45,81,31,221,,87,31,039,,88,88,245,43,1*7D
$GQGSV,1,1,00,1*65
$GAGSV,2,1,08,04,08,300,40,09,03,345,,13,61,159,48,15,46,056,47,7*79
$GAGSV,2,2,08,18,,,40,21,79,301,48,26,16,199,41,27,44,122,46,7*44
$GBGSV,3,1,09,05,09,111,34,08,28,040,39,11,47,055,45,13,32,053,40,1*78
$GBGSV,3,2,09,21,04,057,38,22,02,010,,23,57,182,48,25,11,153,35,1*71
$GBGSV,3,3,09,28,42,229,46,1*48
$GIGSV,1,1,01,06,24,135,,1*4B
$GPZDA,080223.00,06,06,2024,,*69
$GPGGA,080223.00,4825.0750451,N,00428.3604078,W,4,12,0.6,98.795,M,51.637,M,1.0,4095*67
$GPRMC,080223.00,A,4825.0750451,N,00428.3604078,W,0.0,0.0,060624,999.9,E,D*26
$GPVTG,000.00,T,-639.90,M,000.003,N,000.006,K,D*0B
$GNGSA,A,3,26,05,29,18,27,31,16,28,,,,,1.1,0.6,0.9,1*37
$GNGSA,A,3,78,88,79,77,,,,,,,,,1.1,0.6,0.9,2*3C
$GPGSV,4,1,13,01,78,130,51,04,05,282,32,05,14,039,40,09,04,317,38,1*6E
$GPGSV,4,2,13,16,51,300,47,18,64,097,46,20,00,018,,23,10,134,43,1*6E
$GPGSV,4,3,13,26,84,193,51,27,30,260,42,28,15,185,39,29,23,068,43,1*69
$GPGSV,4,4,13,31,38,207,47,1*59
$GSGSV,3,1,11,01,33,195,,02,34,181,,04,28,145,45,05,29,147,,1*67
$GSGSV,3,2,11,06,33,195,,07,05,106,,08,11,114,,17,34,167,,1*65
$GSGSV,3,3,11,28,19,125,,29,-35,054,34,39,17,237,,1*7F
$GLGSV,2,1,08,70,06,341,,71,08,026,,77,21,147,34,78,82,182,52,1*71
$GLGSV,2,2,08,79,39,320,45,81,31,221,,87,31,039,,88,88,245,44,1*7A
$GQGSV,1,1,00,1*65
$GAGSV,2,1,08,04,08,300,40,09,03,345,,13,61,159,48,15,46,056,47,7*79
$GAGSV,2,2,08,18,,,40,21,79,301,48,26,16,199,41,27,44,122,46,7*44
$GBGSV,3,1,09,05,09,111,35,08,28,040,39,11,47,055,45,13,32,053,40,1*79
$GBGSV,3,2,09,21,04,057,39,22,02,010,,23,57,182,48,25,11,153,36,1*73
$GBGSV,3,3,09,28,42,229,47,1*49
$GIGSV,1,1,01,06,24,135,,1*4B
$GPZDA,080224.00,06,06,2024,,*6E
$GPGGA,080224.00,4825.0750451,N,00428.3604074,W,4,12,0.6,98.797,M,51.637,M,2.0,4095*6D
$GPRMC,080224.00,A,4825.0750451,N,00428.3604074,W,0.0,0.0,060624,999.9,E,D*2D
$GPVTG,000.00,T,-639.90,M,000.003,N,000.005,K,D*08
$GNGSA,A,3,26,05,29,18,27,31,16,28,,,,,1.1,0.6,0.9,1*37
$GNGSA,A,3,78,88,79,77,,,,,,,,,1.1,0.6,0.9,2*3C
$GPGSV,4,1,13,01,78,130,51,04,05,282,31,05,14,039,40,09,04,317,38,1*6D
$GPGSV,4,2,13,16,51,300,46,18,64,097,47,20,00,018,,23,10,134,44,1*69
$GPGSV,4,3,13,26,84,193,51,27,30,260,42,28,15,185,38,29,23,068,44,1*6F
$GPGSV,4,4,13,31,38,207,47,1*59
$GSGSV,3,1,11,01,33,195,,02,34,181,,04,28,145,46,05,29,147,,1*64
$GSGSV,3,2,11,06,33,195,,07,05,106,,08,11,114,,17,34,167,,1*65
$GSGSV,3,3,11,28,19,125,,29,-35,054,34,39,17,237,,1*7F
$GLGSV,2,1,08,70,06,341,,71,08,026,,77,21,147,34,78,82,182,52,1*71
$GLGSV,2,2,08,79,39,320,44,81,31,221,,87,31,039,,88,88,245,43,1*7C
$GQGSV,1,1,00,1*65
$GAGSV,2,1,08,04,08,300,40,09,03,345,,13,61,159,48,15,46,056,46,7*78
$GAGSV,2,2,08,18,,,41,21,79,300,48,26,16,199,41,27,44,122,46,7*44
$GBGSV,3,1,09,05,09,111,35,08,28,040,39,11,47,055,45,13,32,053,41,1*78
$GBGSV,3,2,09,21,04,057,39,22,02,010,,23,57,182,48,25,11,153,36,1*73
$GBGSV,3,3,09,28,42,229,46,1*48
$GIGSV,1,1,01,06,24,135,,1*4B
$GPZDA,080225.00,06,06,2024,,*6F
$GPGGA,080225.00,4825.0750454,N,00428.3604080,W,4,12,0.6,98.793,M,51.637,M,3.0,4095*67
$GPRMC,080225.00,A,4825.0750454,N,00428.3604080,W,0.0,0.0,060624,999.9,E,D*22
$GPVTG,000.00,T,-639.90,M,000.001,N,000.002,K,D*0D
$GNGSA,A,3,26,05,29,18,27,31,16,28,,,,,1.1,0.6,0.9,1*37
$GNGSA,A,3,78,88,79,77,,,,,,,,,1.1,0.6,0.9,2*3C
$GPGSV,4,1,13,01,77,130,51,04,05,281,31,05,14,039,40,09,04,317,38,1*61
$GPGSV,4,2,13,16,51,300,47,18,64,097,47,20,00,018,,23,10,134,44,1*68
$GPGSV,4,3,13,26,84,192,51,27,30,260,42,28,15,185,38,29,23,068,43,1*69
$GPGSV,4,4,13,31,38,207,47,1*59
$GSGSV,3,1,11,01,33,195,,02,34,181,,04,28,145,47,05,29,147,,1*65
$GSGSV,3,2,11,06,33,195,,07,05,106,,08,11,114,,17,34,167,,1*65
$GSGSV,3,3,11,28,19,125,,29,-35,054,35,39,17,237,,1*7E
$GLGSV,2,1,08,70,06,341,,71,08,026,,77,21,147,34,78,82,182,52,1*71
$GLGSV,2,2,08,79,39,320,45,81,31,221,,87,31,039,,88,88,245,44,1*7A
$GQGSV,1,1,00,1*65
$GAGSV,2,1,08,04,08,300,40,09,03,345,,13,61,159,47,15,46,056,45,7*74
$GAGSV,2,2,08,18,,,40,21,79,300,48,26,16,199,41,27,44,122,46,7*45
$GBGSV,3,1,09,05,09,111,33,08,28,040,39,11,47,055,44,13,32,053,40,1*7E
$GBGSV,3,2,09,21,04,057,38,22,02,010,,23,57,182,48,25,11,153,35,1*71
$GBGSV,3,3,09,28,42,229,45,1*4B
$GIGSV,1,1,01,06,24,135,,1*4B
$GPZDA,080226.00,06,06,2024,,*6C
$GPGGA,080226.00,4825.0750445,N,00428.3604065,W,4,12,0.6,98.794,M,51.637,M,1.0,4095*6A
$GPRMC,080226.00,A,4825.0750445,N,00428.3604065,W,0.0,0.0,060624,999.9,E,D*2A
$GPVTG,000.00,T,-639.90,M,000.004,N,000.007,K,D*0D
$GNGSA,A,3,26,05,29,18,27,31,16,28,,,,,1.1,0.6,0.9,1*37
$GNGSA,A,3,78,88,79,77,,,,,,,,,1.1,0.6,0.9,2*3C
$GPGSV,4,1,13,01,77,130,51,04,05,281,31,05,14,039,41,09,04,317,37,1*6F
$GPGSV,4,2,13,16,51,300,47,18,64,097,47,20,00,018,,23,10,134,44,1*68
$GPGSV,4,3,13,26,84,192,51,27,30,260,43,28,15,185,39,29,23,068,42,1*68
$GPGSV,4,4,13,31,38,207,47,1*59
$GSGSV,3,1,11,01,33,195,,02,34,181,,04,28,145,47,05,29,147,,1*65
$GSGSV,3,2,11,06,33,195,,07,05,106,,08,11,114,,17,34,167,,1*65
$GSGSV,3,3,11,28,19,125,,29,-35,054,34,39,17,237,,1*7F
$GLGSV,2,1,08,70,06,341,,71,08,026,,77,21,147,34,78,82,182,52,1*71
$GLGSV,2,2,08,79,39,320,45,81,31,221,,87,31,039,,88,88,246,44,1*79
$GQGSV,1,1,00,1*65
$GAGSV,2,1,08,04,08,300,40,09,03,345,,13,61,158,48,15,46,056,46,7*79
$GAGSV,2,2,08,18,,,40,21,79,300,48,26,16,199,41,27,44,122,46,7*45
$GBGSV,3,1,09,05,09,111,34,08,28,040,38,11,47,055,44,13,32,053,40,1*78
$GBGSV,3,2,09,21,04,057,38,22,02,010,,23,57,182,47,25,11,153,35,1*7E
$GBGSV,3,3,09,28,42,229,45,1*4B
$GIGSV,1,1,01,06,24,135,,1*4B
$GPZDA,080237.00,06,06,2024,,*6C
$GPGGA,080237.00,4825.0750452,N,00428.3604088,W,4,12,0.6,98.794,M,51.637,M,2.0,4095*6C
$GPRMC,080237.00,A,4825.0750452,N,00428.3604088,W,0.0,0.0,060624,999.9,E,D*2F
$GPVTG,000.00,T,-639.90,M,000.003,N,000.006,K,D*0B
$GNGSA,A,3,26,05,29,18,27,31,16,28,,,,,1.1,0.6,0.9,1*37
$GNGSA,A,3,78,88,79,77,,,,,,,,,1.1,0.6,0.9,2*3C
$GPGSV,4,1,13,01,77,130,50,04,05,281,32,05,14,039,40,09,04,317,35,1*6E
$GPGSV,4,2,13,16,51,300,46,18,64,097,47,20,00,018,,23,10,134,45,1*68
$GPGSV,4,3,13,26,83,192,52,27,30,260,43,28,15,185,38,29,23,068,41,1*6E
$GPGSV,4,4,13,31,38,207,46,1*58
$GSGSV,3,1,11,01,33,195,,02,34,181,,04,28,145,43,05,29,147,,1*61
$GSGSV,3,2,11,06,33,195,,07,05,106,,08,11,114,,17,34,167,,1*65
$GSGSV,3,3,11,28,19,125,,29,-35,054,33,39,17,237,,1*78
$GLGSV,2,1,08,70,06,341,,71,08,026,,77,21,147,34,78,82,182,52,1*71
$GLGSV,2,2,08,79,39,320,45,81,31,221,,87,31,039,,88,89,249,43,1*70
$GQGSV,1,1,00,1*65
$GAGSV,2,1,08,04,08,300,40,09,04,345,,13,61,158,48,15,46,056,46,7*7E
$GAGSV,2,2,08,18,,,41,21,79,300,48,26,16,199,41,27,44,122,47,7*45
$GBGSV,3,1,09,05,09,111,35,08,28,040,38,11,47,055,44,13,32,053,40,1*79
$GBGSV,3,2,09,21,04,057,37,22,02,010,,23,57,182,47,25,11,153,36,1*72
$GBGSV,3,3,09,28,43,229,46,1*49
$GIGSV,1,1,01,06,24,135,,1*4B
$GPZDA,080238.00,06,06,2024,,*63
$GPGGA,080238.00,4825.0750445,N,00428.3604072,W,4,12,0.6,98.786,M,51.637,M,1.0,4095*60
$GPRMC,080238.00,A,4825.0750445,N,00428.3604072,W,0.0,0.0,060624,999.9,E,D*23
$GPVTG,000.00,T,-639.90,M,000.004,N,000.007,K,D*0D
$GNGSA,A,3,26,05,29,18,27,31,16,28,,,,,1.1,0.6,0.9,1*37
$GNGSA,A,3,78,88,79,77,,,,,,,,,1.1,0.6,0.9,2*3C
$GPGSV,4,1,13,01,77,130,50,04,05,281,32,05,14,039,39,09,04,317,35,1*60
$GPGSV,4,2,13,16,51,300,46,18,64,097,47,20,00,018,,23,10,134,45,1*68
$GPGSV,4,3,13,26,83,192,52,27,30,260,42,28,15,185,38,29,23,068,41,1*6F
$GPGSV,4,4,13,31,38,207,46,1*58
$GSGSV,3,1,11,01,33,195,,02,34,181,,04,28,145,43,05,29,147,,1*61
$GSGSV,3,2,11,06,33,195,,07,05,106,,08,11,114,,17,34,167,,1*65
$GSGSV,3,3,11,28,19,125,,29,-35,054,33,39,17,237,,1*78
$GLGSV,2,1,08,70,06,341,,71,08,026,,77,21,147,34,78,82,182,52,1*71
$GLGSV,2,2,08,79,39,320,45,81,31,221,,87,31,039,,88,89,249,44,1*77
$GQGSV,1,1,00,1*65
$GAGSV,2,1,08,04,08,300,39,09,04,345,,13,61,158,48,15,46,056,46,7*70
$GAGSV,2,2,08,18,,,40,21,79,300,48,26,16,199,41,27,44,122,46,7*45
$GBGSV,3,1,09,05,09,111,34,08,28,040,38,11,47,055,44,13,32,053,40,1*78
$GBGSV,3,2,09,21,04,057,37,22,02,010,,23,57,182,47,25,11,153,36,1*72
$GBGSV,3,3,09,28,43,229,46,1*49
$GIGSV,1,1,01,06,24,135,,1*4B
$GPZDA,080239.00,06,06,2024,,*62
$GPGGA,080239.00,4825.0750448,N,00428.3604076,W,4,12,0.6,98.787,M,51.637,M,2.0,4095*6A
$GPRMC,080239.00,A,4825.0750448,N,00428.3604076,W,0.0,0.0,060624,999.9,E,D*2B
$GPVTG,000.00,T,-639.90,M,000.003,N,000.006,K,D*0B
$GNGSA,A,3,26,05,29,18,27,31,16,28,,,,,1.1,0.6,0.9,1*37
$GNGSA,A,3,78,88,79,77,,,,,,,,,1.1,0.6,0.9,2*3C
$GPGSV,4,1,13,01,77,130,50,04,05,281,33,05,14,039,39,09,04,317,34,1*60
$GPGSV,4,2,13,16,51,300,46,18,64,097,47,20,00,018,,23,10,134,45,1*68
$GPGSV,4,3,13,26,83,192,52,27,30,260,42,28,15,185,38,29,23,068,42,1*6C
$GPGSV,4,4,13,31,38,207,46,1*58
$GSGSV,3,1,11,01,33,195,,02,34,181,,04,28,145,43,05,29,147,,1*61
$GSGSV,3,2,11,06,33,195,,07,05,106,,08,11,114,,17,34,167,,1*65
$GSGSV,3,3,11,28,19,125,,29,-35,054,33,39,17,237,,1*78
$GLGSV,2,1,08,70,06,341,,71,08,026,,77,21,147,34,78,82,182,52,1*71
$GLGSV,2,2,08,79,39,320,45,81,31,221,,87,31,039,,88,89,249,43,1*70
$GQGSV,1,1,00,1*65
$GAGSV,2,1,08,04,08,300,40,09,04,345,,13,61,158,48,15,46,056,46,7*7E
$GAGSV,2,2,08,18,,,41,21,79,300,48,26,16,199,41,27,44,122,46,7*44
$GBGSV,3,1,09,05,09,111,35,08,28,040,38,11,47,055,44,13,32,053,39,1*77
$GBGSV,3,2,09,21,04,057,37,22,02,010,,23,57,182,47,25,11,153,36,1*72
$GBGSV,3,3,09,28,43,229,45,1*4A
$GIGSV,1,1,01,06,24,135,,1*4B
$GPZDA,080240.00,06,06,2024,,*6C
$GPGGA,080240.00,4825.0750452,N,00428.3604067,W,4,12,0.6,98.782,M,51.637,M,3.0,4095*6B
$GPRMC,080240.00,A,4825.0750452,N,00428.3604067,W,0.0,0.0,060624,999.9,E,D*2E
$GPVTG,000.00,T,-639.90,M,000.005,N,000.010,K,D*0A
$GNGSA,A,3,26,05,29,18,27,31,16,28,,,,,1.1,0.6,0.9,1*37
$GNGSA,A,3,78,88,79,77,,,,,,,,,1.1,0.6,0.9,2*3C
$GPGSV,4,1,13,01,77,130,50,04,05,281,34,05,14,039,40,09,04,317,34,1*69
$GPGSV,4,2,13,16,51,300,46,18,64,097,47,20,00,018,,23,10,134,45,1*68
$GPGSV,4,3,13,26,83,192,52,27,30,260,42,28,15,185,38,29,23,068,42,1*6C
$GPGSV,4,4,13,31,38,207,46,1*58
$GSGSV,3,1,11,01,33,195,,02,34,181,,04,28,145,45,05,29,147,,1*67
$GSGSV,3,2,11,06,33,195,,07,05,106,,08,11,114,,17,34,167,,1*65
$GSGSV,3,3,11,28,19,125,,29,-35,054,35,39,17,237,,1*7E
$GLGSV,2,1,08,70,06,341,,71,08,026,,77,21,147,33,78,82,182,52,1*76
$GLGSV,2,2,08,79,39,320,44,81,31,221,,87,31,039,,88,89,249,43,1*71
$GQGSV,1,1,00,1*65
$GAGSV,2,1,08,04,08,300,40,09,04,345,,13,61,158,48,15,45,056,46,7*7D
$GAGSV,2,2,08,18,,,41,21,79,300,48,26,16,199,42,27,44,122,46,7*47
$GBGSV,3,1,09,05,09,111,35,08,28,040,38,11,47,055,44,13,32,053,40,1*79
$GBGSV,3,2,09,21,04,057,37,22,02,010,,23,57,182,47,25,11,153,37,1*73
$GBGSV,3,3,09,28,43,229,46,1*49
$GIGSV,1,1,01,06,24,135,,1*4B
$GPZDA,080241.00,06,06,2024,,*6D
$GPGGA,080241.00,4825.0750437,N,00428.3604069,W,4,12,0.6,98.794,M,51.637,M,1.0,4095*62
$GPRMC,080241.00,A,4825.0750437,N,00428.3604069,W,0.0,0.0,060624,999.9,E,D*22
$GPVTG,000.00,T,-639.90,M,000.006,N,000.010,K,D*09
$GNGSA,A,3,26,05,29,18,27,31,16,28,,,,,1.1,0.6,0.9,1*37
$GNGSA,A,3,78,88,79,77,,,,,,,,,1.1,0.6,0.9,2*3C
$GPGSV,4,1,13,01,77,130,51,04,05,281,33,05,14,039,40,09,04,317,34,1*6F
$GPGSV,4,2,13,16,51,300,46,18,64,097,47,20,00,018,,23,10,134,44,1*69
$GPGSV,4,3,13,26,83,192,52,27,30,260,42,28,15,185,38,29,23,068,41,1*6F
$GPGSV,4,4,13,31,38,207,47,1*59
$GSGSV,3,1,11,01,33,195,,02,34,181,,04,28,145,44,05,29,147,,1*66
$GSGSV,3,2,11,06,33,195,,07,05,106,,08,11,114,,17,34,167,,1*65
$GSGSV,3,3,11,28,19,125,,29,-35,054,35,39,17,237,,1*7E
$GLGSV,2,1,08,70,06,341,,71,08,026,,77,21,147,34,78,82,182,52,1*71
$GLGSV,2,2,08,79,39,320,44,81,31,221,,87,31,039,,88,89,250,43,1*79
$GQGSV,1,1,00,1*65
$GAGSV,2,1,08,04,08,300,40,09,04,345,,13,61,158,48,15,45,056,46,7*7D
$GAGSV,2,2,08,18,,,40,21,79,300,48,26,16,199,42,27,44,122,46,7*46
$GBGSV,3,1,09,05,09,111,34,08,28,040,38,11,47,055,44,13,32,053,39,1*76
$GBGSV,3,2,09,21,04,057,37,22,02,010,,23,57,182,47,25,11,153,37,1*73
$GBGSV,3,3,09,28,43,229,46,1*49
$GIGSV,1,1,01,06,24,135,,1*4B
$GPZDA,080242.00,06,06,2024,,*6E
$GPGGA,080242.00,4825.0750458,N,00428.3604080,W,4,12,0.6,98.786,M,51.637,M,1.0,4095*6C
$GPRMC,080242.00,A,4825.0750458,N,00428.3604080,W,0.0,0.0,060624,999.9,E,D*2F
$GPVTG,000.00,T,-639.90,M,000.002,N,000.005,K,D*09
$GNGSA,A,3,26,05,29,18,27,31,16,28,,,,,1.1,0.6,0.9,1*37
$GNGSA,A,3,78,88,79,77,,,,,,,,,1.1,0.6,0.9,2*3C
$GPGSV,4,1,13,01,77,130,51,04,05,281,33,05,14,039,40,09,04,317,34,1*6F
$GPGSV,4,2,13,16,51,300,46,18,64,097,46,20,00,018,,23,10,134,44,1*68
$GPGSV,4,3,13,26,83,192,52,27,30,260,43,28,15,185,38,29,23,068,41,1*6E
$GPGSV,4,4,13,31,38,207,46,1*58
$GSGSV,3,1,11,01,33,195,,02,34,181,,04,28,145,45,05,29,147,,1*67
$GSGSV,3,2,11,06,33,195,,07,05,106,,08,11,114,,17,34,167,,1*65
$GSGSV,3,3,11,28,19,125,,29,-35,054,34,39,17,237,,1*7F
$GLGSV,2,1,08,70,06,341,,71,08,026,,77,21,147,33,78,82,182,52,1*76
$GLGSV,2,2,08,79,40,320,44,81,31,221,,87,31,039,,88,89,250,43,1*77
$GQGSV,1,1,00,1*65
$GAGSV,2,1,08,04,08,300,40,09,04,345,,13,61,158,47,15,45,056,45,7*71
$GAGSV,2,2,08,18,,,40,21,79,300,48,26,16,199,41,27,44,122,46,7*45
$GBGSV,3,1,09,05,09,111,33,08,28,040,38,11,47,055,44,13,32,053,40,1*7F
$GBGSV,3,2,09,21,04,057,37,22,02,010,,23,57,182,47,25,11,153,37,1*73
$GBGSV,3,3,09,28,43,229,46,1*49
$GIGSV,1,1,01,06,24,135,,1*4B
$GPZDA,080243.00,06,06,2024,,*6F
$GPGGA,080243.00,4825.0750460,N,00428.3604098,W,4,12,0.6,98.786,M,51.637,M,2.0,4095*6C
$GPRMC,080243.00,A,4825.0750460,N,00428.3604098,W,0.0,0.0,060624,999.9,E,D*2C
$GPVTG,000.00,T,-639.90,M,000.002,N,000.003,K,D*0F
$GNGSA,A,3,26,05,29,18,27,31,16,28,,,,,1.1,0.6,0.9,1*37
$GNGSA,A,3,78,88,79,77,,,,,,,,,1.1,0.6,0.9,2*3C
$GPGSV,4,1,13,01,77,130,51,04,05,281,33,05,14,039,40,09,04,317,35,1*6E
$GPGSV,4,2,13,16,51,300,47,18,64,097,46,20,00,018,,23,10,134,44,1*69
$GPGSV,4,3,13,26,83,192,52,27,30,260,43,28,15,185,38,29,23,068,41,1*6E
$GPGSV,4,4,13,31,38,207,46,1*58
$GSGSV,3,1,11,01,33,195,,02,34,181,,04,28,145,45,05,29,147,,1*67
$GSGSV,3,2,11,06,33,195,,07,05,106,,08,11,114,,17,34,167,,1*65
$GSGSV,3,3,11,28,19,125,,29,-35,054,35,39,17,237,,1*7E
$GLGSV,2,1,08,70,06,341,,71,08,026,,77,21,147,34,78,82,182,52,1*71
$GLGSV,2,2,08,79,40,320,45,81,31,221,,87,31,039,,88,89,250,44,1*71
$GQGSV,1,1,00,1*65
$GAGSV,2,1,08,04,08,300,40,09,04,345,,13,61,158,47,15,45,056,46,7*72
$GAGSV,2,2,08,18,,,41,21,79,300,48,26,16,199,41,27,44,122,46,7*44
$GBGSV,3,1,09,05,09,111,35,08,28,040,39,11,47,055,45,13,32,053,41,1*78
$GBGSV,3,2,09,21,04,057,38,22,02,010,,23,57,182,48,25,11,153,37,1*73
$GBGSV,3,3,09,28,43,229,46,1*49
$GIGSV,1,1,01,06,24,135,,1*4B
$GPZDA,080244.00,06,06,2024,,*68
$GPGGA,080244.00,4825.0750460,N,00428.3604101,W,4,12,0.6,98.786,M,51.637,M,3.0,4095*6B
$GPRMC,080244.00,A,4825.0750460,N,00428.3604101,W,0.0,0.0,060624,999.9,E,D*2A
$GPVTG,000.00,T,-639.90,M,000.006,N,000.010,K,D*09
$GNGSA,A,3,26,05,29,18,27,31,16,28,,,,,1.1,0.6,0.9,1*37
$GNGSA,A,3,78,88,79,77,,,,,,,,,1.1,0.6,0.9,2*3C
$GPGSV,4,1,13,01,77,130,51,04,05,281,34,05,14,039,39,09,04,317,34,1*66
$GPGSV,4,2,13,16,51,300,47,18,64,097,47,20,00,018,,23,10,134,44,1*68
$GPGSV,4,3,13,26,83,191,52,27,30,260,43,28,15,185,38,29,23,068,41,1*6D
$GPGSV,4,4,13,31,38,207,45,1*5B
$GSGSV,3,1,11,01,33,195,,02,34,181,,04,28,145,45,05,29,147,,1*67
$GSGSV,3,2,11,06,33,195,,07,05,106,,08,11,114,,17,34,167,,1*65
$GSGSV,3,3,11,28,19,125,,29,-35,054,34,39,17,237,,1*7F
$GLGSV,2,1,08,70,06,341,,71,08,026,,77,21,147,35,78,82,182,52,1*70
$GLGSV,2,2,08,79,40,320,46,81,31,221,,87,31,039,,88,89,251,43,1*74
$GQGSV,1,1,00,1*65
$GAGSV,2,1,08,04,08,300,40,09,04,345,,13,61,158,47,15,45,056,47,7*73
$GAGSV,2,2,08,18,,,41,21,79,300,48,26,16,199,41,27,44,122,46,7*44
$GBGSV,3,1,09,05,09,111,34,08,28,040,38,11,47,055,44,13,32,053,40,1*78
$GBGSV,3,2,09,21,04,057,37,22,02,010,,23,57,182,47,25,11,153,38,1*7C
$GBGSV,3,3,09,28,43,229,46,1*49
$GIGSV,1,1,01,06,24,135,,1*4B
$GPGSV,4,4,13,31,38,207,46,1*58
$GSGSV,3,1,11,01,33,195,,02,34,181,,04,28,145,44,05,29,147,,1*66
$GSGSV,3,2,11,06,33,195,,07,05,106,,08,11,114,,17,34,167,,1*65
$GSGSV,3,3,11,28,19,125,,29,-35,054,34,39,17,237,,1*7F
$GLGSV,2,1,08,70,06,341,,71,08,026,,77,21,147,35,78,82,182,52,1*70
$GLGSV,2,2,08,79,40,320,46,81,31,221,,87,31,039,,88,89,251,44,1*73
$GQGSV,1,1,00,1*65
$GAGSV,2,1,08,04,08,300,40,09,04,345,,13,61,158,48,15,45,056,47,7*7C
$GAGSV,2,2,08,18,,,41,21,79,300,48,26,16,199,42,27,44,122,46,7*47
$GBGSV,3,1,09,05,09,111,35,08,28,040,38,11,46,055,45,13,32,053,41,1*78
$GBGSV,3,2,09,21,04,057,38,22,02,010,,23,57,182,48,25,11,153,38,1*7C
$GBGSV,3,3,09,28,43,229,46,1*49
$GIGSV,1,1,01,06,24,135,,1*4B
$GPZDA,080246.00,06,06,2024,,*6A
$GPGGA,080246.00,4825.0750441,N,00428.3604072,W,4,12,0.6,98.793,M,51.637,M,1.0,4095*69
$GPRMC,080246.00,A,4825.0750441,N,00428.3604072,W,0.0,0.0,060624,999.9,E,D*2E
$GPVTG,000.00,T,-639.90,M,000.004,N,000.007,K,D*0D
$GNGSA,A,3,26,05,29,18,27,31,16,28,,,,,1.1,0.6,0.9,1*37
$GNGSA,A,3,78,88,79,77,,,,,,,,,1.1,0.6,0.9,2*3C
$GPGSV,4,1,13,01,77,130,51,04,05,281,34,05,14,039,38,09,04,317,35,1*66
$GPGSV,4,2,13,16,51,300,46,18,64,097,47,20,00,018,,23,10,134,43,1*6E
$GPGSV,4,3,13,26,83,191,52,27,30,261,43,28,15,185,38,29,23,068,41,1*6C
$GPGSV,4,4,13,31,38,207,46,1*58
$GSGSV,3,1,11,01,33,195,,02,34,181,,04,28,145,44,05,29,147,,1*66
$GSGSV,3,2,11,06,33,195,,07,05,106,,08,11,114,,17,34,167,,1*65
$GSGSV,3,3,11,28,19,125,,29,-35,054,34,39,17,237,,1*7F
$GLGSV,2,1,08,70,06,341,,71,08,026,,77,21,147,35,78,82,182,52,1*70
$GLGSV,2,2,08,79,40,320,45,81,31,221,,87,31,039,,88,89,251,44,1*70
$GQGSV,1,1,00,1*65
$GAGSV,2,1,08,04,08,300,39,09,04,345,,13,61,158,47,15,45,056,46,7*7C
$GAGSV,2,2,08,18,,,40,21,79,300,48,26,16,199,42,27,44,122,46,7*46
$GBGSV,3,1,09,05,09,111,35,08,28,040,38,11,46,055,45,13,32,053,41,1*78
$GBGSV,3,2,09,21,04,057,37,22,02,010,,23,57,182,48,25,11,153,38,1*73
$GBGSV,3,3,09,28,43,229,46,1*49
$GIGSV,1,1,01,06,24,135,,1*4B
$GPZDA,080247.00,06,06,2024,,*6B
$GPGGA,080247.00,4825.0750441,N,00428.3604077,W,4,12,0.6,98.793,M,51.637,M,1.0,4095*6D
$GPRMC,080247.00,A,4825.0750441,N,00428.3604077,W,0.0,0.0,060624,999.9,E,D*2A
$GPVTG,000.00,T,-639.90,M,000.003,N,000.006,K,D*0B
$GNGSA,A,3,26,05,29,18,27,31,16,28,,,,,1.1,0.6,0.9,1*37
$GNGSA,A,3,78,88,79,77,,,,,,,,,1.1,0.6,0.9,2*3C
$GPGSV,4,1,13,01,77,130,51,04,05,281,33,05,14,039,38,09,04,317,36,1*62
$GPGSV,4,2,13,16,51,300,47,18,64,097,47,20,00,018,,23,10,134,43,1*6F
$GPGSV,4,3,13,26,83,191,52,27,30,261,43,28,15,185,38,29,23,068,42,1*6F
$GPGSV,4,4,13,31,38,207,47,1*59
$GSGSV,3,1,11,01,33,195,,02,34,181,,04,28,145,45,05,29,147,,1*67
$GSGSV,3,2,11,06,33,195,,07,05,106,,08,11,114,,17,34,167,,1*65
$GSGSV,3,3,11,28,19,125,,29,-35,054,34,39,17,237,,1*7F
$GLGSV,2,1,08,70,06,341,,71,08,026,,77,21,147,35,78,82,182,53,1*71
$GLGSV,2,2,08,79,40,320,46,81,31,221,,87,31,039,,88,89,252,44,1*70
$GQGSV,1,1,00,1*65
$GAGSV,2,1,08,04,08,300,39,09,04,345,,13,61,158,47,15,45,056,46,7*7C
$GAGSV,2,2,08,18,,,40,21,79,300,48,26,16,199,42,27,44,122,47,7*47
$GBGSV,3,1,09,05,09,111,35,08,28,040,39,11,46,055,45,13,32,053,40,1*78
$GBGSV,3,2,09,21,04,057,37,22,02,010,,23,57,182,48,25,11,153,38,1*73
$GBGSV,3,3,09,28,43,229,46,1*49
$GIGSV,1,1,01,06,24,135,,1*4B
$GPZDA,080248.00,06,06,2024,,*64
$GPGGA,080248.00,4825.0750437,N,00428.3604073,W,4,12,0.6,98.792,M,51.637,M,2.0,4095*65
$GPRMC,080248.00,A,4825.0750437,N,00428.3604073,W,0.0,0.0,060624,999.9,E,D*20
$GPVTG,000.00,T,-639.90,M,000.004,N,000.007,K,D*0D
$GNGSA,A,3,26,05,29,18,27,31,16,28,,,,,1.1,0.6,0.9,1*37
$GNGSA,A,3,78,88,79,77,,,,,,,,,1.1,0.6,0.9,2*3C
$GPGSV,4,1,13,01,77,130,51,04,05,281,34,05,14,039,38,09,04,317,36,1*65
$GPGSV,4,2,13,16,51,300,46,18,64,097,47,20,00,018,,23,10,134,43,1*6E
$GPGSV,4,3,13,26,83,191,52,27,30,261,43,28,15,185,38,29,23,068,43,1*6E
$GPGSV,4,4,13,31,38,207,46,1*58
$GSGSV,3,1,11,01,33,195,,02,34,181,,04,28,145,44,05,29,147,,1*66
$GSGSV,3,2,11,06,33,195,,07,05,106,,08,11,114,,17,34,167,,1*65
$GSGSV,3,3,11,28,19,125,,29,-35,054,34,39,17,237,,1*7F
$GLGSV,2,1,08,70,06,341,,71,08,026,,77,21,147,35,78,82,182,53,1*71
$GLGSV,2,2,08,79,40,320,46,81,31,221,,87,31,039,,88,89,252,45,1*71
$GQGSV,1,1,00,1*65
$GAGSV,2,1,08,04,08,300,39,09,04,345,,13,61,158,47,15,45,056,46,7*7C
$GAGSV,2,2,08,18,,,40,21,79,300,48,26,16,199,41,27,44,122,46,7*45
$GBGSV,3,1,09,05,09,111,35,08,28,040,39,11,46,055,45,13,32,053,40,1*78
$GBGSV,3,2,09,21,04,057,37,22,02,010,,23,57,182,48,25,11,153,38,1*73
$GBGSV,3,3,09,28,43,229,46,1*49
$GIGSV,1,1,01,06,24,135,,1*4B
$GPZDA,080249.00,06,06,2024,,*65
$GPGGA,080249.00,4825.0750454,N,00428.3604074,W,4,12,0.6,98.789,M,51.637,M,1.0,4095*6F
$GPRMC,080249.00,A,4825.0750454,N,00428.3604074,W,0.0,0.0,060624,999.9,E,D*23
$GPVTG,000.00,T,-639.90,M,000.002,N,000.003,K,D*0F
$GNGSA,A,3,26,05,29,18,27,31,16,28,,,,,1.1,0.6,0.9,1*37
$GNGSA,A,3,78,88,79,77,,,,,,,,,1.1,0.6,0.9,2*3C
$GPGSV,4,1,13,01,77,130,51,04,05,281,34,05,14,039,38,09,04,317,37,1*64
$GPGSV,4,2,13,16,51,300,46,18,64,097,47,20,00,018,,23,10,134,43,1*6E
$GPGSV,4,3,13,26,83,191,52,27,30,261,43,28,15,185,38,29,23,068,43,1*6E
$GPGSV,4,4,13,31,38,207,45,1*5B
$GSGSV,3,1,11,01,33,195,,02,34,181,,04,28,145,43,05,29,147,,1*61
$GSGSV,3,2,11,06,33,195,,07,05,106,,08,11,114,,17,34,167,,1*65
$GSGSV,3,3,11,28,19,125,,29,-35,054,34,39,17,237,,1*7F
$GLGSV,2,1,08,70,06,341,,71,08,026,,77,21,147,35,78,82,182,52,1*70
$GLGSV,2,2,08,79,40,320,46,81,31,221,,87,31,039,,88,89,252,44,1*70
$GQGSV,1,1,00,1*65
$GAGSV,2,1,08,04,08,300,39,09,04,345,,13,61,158,47,15,45,056,46,7*7C
$GAGSV,2,2,08,18,,,40,21,79,300,48,26,16,199,41,27,44,122,46,7*45
$GBGSV,3,1,09,05,09,111,35,08,28,040,39,11,46,055,45,13,32,053,40,1*78
$GBGSV,3,2,09,21,04,057,37,22,02,010,,23,57,182,48,25,11,153,38,1*73
$GBGSV,3,3,09,28,43,229,46,1*49
$GIGSV,1,1,01,06,24,135,,1*4B
$GPZDA,080250.00,06,06,2024,,*6D
$GPGGA,080250.00,4825.0750464,N,00428.3604082,W,4,12,0.6,98.786,M,51.637,M,1.0,4095*62
$GPRMC,080250.00,A,4825.0750464,N,00428.3604082,W,0.0,0.0,060624,999.9,E,D*21
$GPVTG,000.00,T,-639.90,M,000.004,N,000.007,K,D*0D
$GNGSA,A,3,26,05,29,18,27,31,16,28,,,,,1.1,0.6,0.9,1*37
$GNGSA,A,3,78,88,79,77,,,,,,,,,1.1,0.6,0.9,2*3C
$GPGSV,4,1,13,01,77,130,51,04,05,281,34,05,14,039,38,09,04,317,37,1*64
$GPGSV,4,2,13,16,51,300,46,18,64,097,47,20,00,018,,23,10,134,43,1*6E
$GPGSV,4,3,13,26,83,191,52,27,30,261,44,28,15,185,38,29,23,068,43,1*69
$GPGSV,4,4,13,31,38,207,46,1*58
$GSGSV,3,1,11,01,33,195,,02,34,181,,04,28,145,44,05,29,147,,1*66
$GSGSV,3,2,11,06,33,195,,07,05,106,,08,11,114,,17,34,167,,1*65
$GSGSV,3,3,11,28,19,125,,29,-35,054,34,39,17,237,,1*7F
$GLGSV,2,1,08,70,06,341,,71,08,026,,77,21,147,35,78,82,182,53,1*71
$GLGSV,2,2,08,79,40,320,46,81,31,221,,87,31,039,,88,89,252,44,1*70
$GQGSV,1,1,00,1*65
$GAGSV,2,1,08,04,08,300,39,09,04,345,,13,61,158,47,15,45,056,46,7*7C
$GAGSV,2,2,08,18,,,41,21,79,300,48,26,16,199,42,27,44,122,47,7*46
$GBGSV,3,1,09,05,09,111,35,08,28,040,39,11,46,055,45,13,32,053,40,1*78
$GBGSV,3,2,09,21,04,057,37,22,02,010,,23,57,182,48,25,11,153,39,1*72
$GBGSV,3,3,09,28,43,229,46,1*49
$GIGSV,1,1,01,06,24,135,,1*4B
$GPZDA,080251.00,06,06,2024,,*6C
$GPGGA,080251.00,4825.0750458,N,00428.3604089,W,4,12,0.6,98.794,M,51.637,M,1.0,4095*64
$GPRMC,080251.00,A,4825.0750458,N,00428.3604089,W,0.0,0.0,060624,999.9,E,D*24
$GPVTG,000.00,T,-639.90,M,000.002,N,000.004,K,D*08
$GNGSA,A,3,26,05,29,18,27,31,16,28,,,,,1.1,0.6,0.9,1*37
$GNGSA,A,3,78,88,79,77,,,,,,,,,1.1,0.6,0.9,2*3C
$GPGSV,4,1,13,01,77,130,50,04,05,281,35,05,14,039,39,09,04,317,37,1*65
$GPGSV,4,2,13,16,51,300,47,18,64,097,47,20,00,018,,23,10,134,42,1*6E
$GPGSV,4,3,13,26,83,191,52,27,30,261,44,28,15,185,38,29,23,068,42,1*68
$GPGSV,4,4,13,31,38,207,46,1*58
$GSGSV,3,1,11,01,33,195,,02,34,181,,04,28,145,43,05,29,147,,1*61
$GSGSV,3,2,11,06,33,195,,07,05,106,,08,11,114,,17,34,167,,1*65
$GSGSV,3,3,11,28,19,125,,29,-35,054,34,39,17,237,,1*7F
$GLGSV,2,1,08,70,06,341,,71,08,026,,77,21,147,35,78,82,182,53,1*71
$GLGSV,2,2,08,79,40,320,46,81,31,221,,87,31,039,,88,89,253,44,1*71
$GQGSV,1,1,00,1*65
$GAGSV,2,1,08,04,08,300,39,09,04,345,,13,61,158,47,15,45,056,46,7*7C
$GAGSV,2,2,08,18,,,40,21,79,300,48,26,16,199,41,27,44,122,46,7*45
$GBGSV,3,1,09,05,09,111,35,08,28,040,39,11,46,055,45,13,32,053,40,1*78
$GBGSV,3,2,09,21,04,057,38,22,02,010,,23,57,182,48,25,11,153,39,1*7D
$GBGSV,3,3,09,28,43,229,46,1*49
$GIGSV,1,1,01,06,24,135,,1*4B
$GPZDA,080252.00,06,06,2024,,*6F
$GPGGA,080252.00,4825.0750448,N,00428.3604083,W,4,12,0.6,98.793,M,51.637,M,1.0,4095*6B
$GPRMC,080252.00,A,4825.0750448,N,00428.3604083,W,0.0,0.0,060624,999.9,E,D*2C
$GPVTG,000.00,T,-639.90,M,000.001,N,000.001,K,D*0E
$GNGSA,A,3,26,05,29,18,27,31,16,28,,,,,1.1,0.6,0.9,1*37
$GNGSA,A,3,78,88,79,77,,,,,,,,,1.1,0.6,0.9,2*3C
$GPGSV,4,1,13,01,77,130,50,04,05,281,35,05,14,039,40,09,04,317,38,1*64
$GPGSV,4,2,13,16,51,300,46,18,64,097,47,20,00,018,,23,10,134,42,1*6F
$GPGSV,4,3,13,26,83,191,52,27,30,261,44,28,15,185,38,29,23,068,42,1*68
$GPGSV,4,4,13,31,38,207,47,1*59
$GSGSV,3,1,11,01,33,195,,02,34,181,,04,28,145,43,05,29,147,,1*61
$GSGSV,3,2,11,06,33,195,,07,05,106,,08,11,114,,17,34,167,,1*65
$GSGSV,3,3,11,28,19,125,,29,-35,054,34,39,17,237,,1*7F
$GLGSV,2,1,08,70,06,341,,71,08,026,,77,21,147,35,78,81,182,54,1*75
$GLGSV,2,2,08,79,40,320,46,81,31,221,,87,31,039,,88,89,253,45,1*70
$GQGSV,1,1,00,1*65
$GAGSV,2,1,08,04,08,300,39,09,04,345,,13,61,158,48,15,45,056,46,7*73
$GAGSV,2,2,08,18,,,40,21,79,300,48,26,16,199,41,27,44,122,46,7*45
$GBGSV,3,1,09,05,09,111,36,08,28,040,40,11,46,055,45,13,32,053,40,1*75
$GBGSV,3,2,09,21,04,057,38,22,02,010,,23,57,182,48,25,11,153,40,1*73
$GBGSV,3,3,09,28,43,229,47,1*48
$GIGSV,1,1,01,06,24,135,,1*4B
$GPZDA,080253.00,06,06,2024,,*6E
$GPGGA,080253.00,4825.0750436,N,00428.3604063,W,4,12,0.6,98.798,M,51.637,M,2.0,4095*65
$GPRMC,080253.00,A,4825.0750436,N,00428.3604063,W,0.0,0.0,060624,999.9,E,D*2A
$GPVTG,000.00,T,-639.90,M,000.010,N,000.018,K,D*06
$GNGSA,A,3,26,05,29,18,27,31,16,28,,,,,1.1,0.6,0.9,1*37
$GNGSA,A,3,78,88,79,77,,,,,,,,,1.1,0.6,0.9,2*3C
$GPGSV,4,1,13,01,77,130,51,04,05,281,35,05,14,039,40,09,04,316,38,1*64
$GPGSV,4,2,13,16,51,300,46,18,64,097,47,20,00,018,,23,10,134,42,1*6F
$GPGSV,4,3,13,26,83,191,52,27,30,261,43,28,15,185,38,29,23,068,42,1*6F
$GPGSV,4,4,13,31,38,207,47,1*59
$GSGSV,3,1,11,01,33,195,,02,34,181,,04,28,145,43,05,29,147,,1*61
$GSGSV,3,2,11,06,33,195,,07,05,106,,08,11,114,,17,34,167,,1*65
$GSGSV,3,3,11,28,19,125,,29,-35,054,34,39,17,237,,1*7F
$GLGSV,2,1,08,70,06,341,,71,08,026,,77,21,147,34,78,81,182,53,1*73
$GLGSV,2,2,08,79,40,320,46,81,31,221,,87,31,039,,88,89,253,45,1*70
$GQGSV,1,1,00,1*65
$GAGSV,2,1,08,04,08,300,39,09,04,345,,13,61,158,48,15,45,056,46,7*73
$GAGSV,2,2,08,18,,,40,21,79,300,49,26,16,199,41,27,44,122,46,7*44
$GBGSV,3,1,09,05,09,111,35,08,28,040,39,11,46,055,45,13,32,053,40,1*78
$GBGSV,3,2,09,21,04,057,38,22,02,010,,23,56,182,48,25,11,153,40,1*72
$GBGSV,3,3,09,28,43,229,47,1*48
$GIGSV,1,1,01,06,24,135,,1*4B
$GPZDA,080254.00,06,06,2024,,*69
$GPGGA,080254.00,4825.0750419,N,00428.3604046,W,4,12,0.6,98.796,M,51.637,M,2.0,4095*66
$GPRMC,080254.00,A,4825.0750419,N,00428.3604046,W,0.0,0.0,060624,999.9,E,D*27
$GPVTG,000.00,T,-639.90,M,000.009,N,000.016,K,D*00
$GNGSA,A,3,26,05,29,18,27,31,16,28,,,,,1.1,0.6,0.9,1*37
$GNGSA,A,3,78,88,79,77,,,,,,,,,1.1,0.6,0.9,2*3C
$GPGSV,4,1,13,01,77,130,51,04,05,281,35,05,14,039,40,09,04,316,38,1*64
$GPGSV,4,2,13,16,51,300,47,18,64,097,47,20,00,018,,23,10,134,42,1*6E
$GPGSV,4,3,13,26,83,191,52,27,30,261,43,28,15,185,38,29,23,068,42,1*6F
$GPGSV,4,4,13,31,38,207,46,1*58
$GSGSV,3,1,11,01,33,195,,02,34,181,,04,28,145,43,05,29,147,,1*61
$GSGSV,3,2,11,06,33,195,,07,05,106,,08,11,114,,17,34,167,,1*65
$GSGSV,3,3,11,28,19,125,,29,-35,054,35,39,17,237,,1*7E
$GLGSV,2,1,08,70,06,341,,71,08,026,,77,21,147,34,78,81,182,53,1*73
$GLGSV,2,2,08,79,40,320,46,81,31,221,,87,31,039,,88,89,254,45,1*77
$GQGSV,1,1,00,1*65
$GAGSV,2,1,08,04,08,300,40,09,04,345,,13,61,158,48,15,45,056,46,7*7D
$GAGSV,2,2,08,18,,,40,21,79,300,49,26,16,199,41,27,44,122,46,7*44
$GBGSV,3,1,09,05,09,111,35,08,28,040,39,11,46,055,46,13,32,053,41,1*7A
$GBGSV,3,2,09,21,04,057,38,22,02,010,,23,56,182,48,25,11,153,40,1*72
$GBGSV,3,3,09,28,43,229,47,1*48
$GIGSV,1,1,01,06,24,135,,1*4B
$GPZDA,080302.00,06,06,2024,,*6B
$GPGGA,080302.00,4825.0750454,N,00428.3604094,W,4,12,0.6,98.787,M,51.637,M,1.0,4095*61
$GPRMC,080302.00,A,4825.0750454,N,00428.3604094,W,0.0,0.0,060624,999.9,E,D*23
$GPVTG,000.00,T,-639.90,M,000.004,N,000.008,K,D*02
$GNGSA,A,3,26,05,29,18,27,31,16,28,,,,,1.1,0.6,0.9,1*37
$GNGSA,A,3,78,88,79,77,,,,,,,,,1.1,0.6,0.9,2*3C
$GPGSV,4,1,13,01,77,130,51,04,05,281,37,05,14,039,39,09,04,316,40,1*67
$GPGSV,4,2,13,16,51,300,45,18,64,096,46,20,00,018,,23,10,134,41,1*6F
$GPGSV,4,3,13,26,83,191,51,27,31,261,43,28,15,185,37,29,23,068,41,1*61
$GPGSV,4,4,13,31,38,207,46,1*58
$GBGSV,3,3,09,28,43,229,46,1*49
$GIGSV,1,1,01,06,24,135,,1*4B
$GPZDA,080303.00,06,06,2024,,*6A
$GPGGA,080303.00,4825.0750448,N,00428.3604071,W,4,12,0.6,98.790,M,51.637,M,1.0,4095*60
$GPRMC,080303.00,A,4825.0750448,N,00428.3604071,W,0.0,0.0,060624,999.9,E,D*24
$GPVTG,000.00,T,-639.90,M,000.002,N,000.003,K,D*0F
$GNGSA,A,3,26,05,29,18,27,31,16,28,,,,,1.1,0.6,0.9,1*37
$GNGSA,A,3,78,88,79,77,,,,,,,,,1.1,0.6,0.9,2*3C
$GPGSV,4,1,13,01,77,130,51,04,05,281,37,05,14,039,39,09,04,316,39,1*69
$GPGSV,4,2,13,16,51,300,45,18,64,096,46,20,00,018,,23,10,134,41,1*6F
$GPGSV,4,3,13,26,83,190,52,27,31,261,43,28,15,185,38,29,23,068,42,1*6F
$GPGSV,4,4,13,31,38,207,46,1*58
$GSGSV,3,1,11,01,33,195,,02,34,181,,04,28,145,44,05,29,147,,1*66
$GSGSV,3,2,11,06,33,195,,07,05,106,,08,11,114,,17,34,167,,1*65
$GSGSV,3,3,11,28,19,125,,29,-35,054,34,39,17,237,,1*7F
$GLGSV,2,1,08,70,06,340,,71,08,026,,77,21,147,33,78,81,182,53,1*75
$GLGSV,2,2,08,79,40,320,45,81,31,222,,87,31,039,,88,89,257,44,1*75
$GQGSV,1,1,00,1*65
$GAGSV,2,1,08,04,08,300,40,09,04,345,,13,61,158,48,15,45,056,46,7*7D
$GAGSV,2,2,08,18,,,40,21,79,300,48,26,16,199,41,27,44,122,46,7*45
$GBGSV,3,1,09,05,09,111,35,08,28,040,39,11,46,055,46,13,32,053,40,1*7B
$GBGSV,3,2,09,21,04,057,38,22,02,010,,23,56,182,48,25,11,153,40,1*72
$GBGSV,3,3,09,28,43,229,46,1*49
$GIGSV,1,1,01,06,24,135,,1*4B
$GPZDA,080304.00,06,06,2024,,*6D
$GPGGA,080304.00,4825.0750441,N,00428.3604074,W,4,12,0.6,98.789,M,51.637,M,1.0,4095*63
$GPRMC,080304.00,A,4825.0750441,N,00428.3604074,W,0.0,0.0,060624,999.9,E,D*2F
$GPVTG,000.00,T,-639.90,M,000.004,N,000.007,K,D*0D
$GNGSA,A,3,26,05,29,18,27,31,16,28,,,,,1.1,0.6,0.9,1*37
$GNGSA,A,3,78,88,79,77,,,,,,,,,1.1,0.6,0.9,2*3C
$GPGSV,4,1,13,01,77,130,51,04,05,281,35,05,14,039,40,09,04,316,40,1*6B
$GPGSV,4,2,13,16,51,300,45,18,64,096,46,20,00,018,,23,10,134,41,1*6F
$GPGSV,4,3,13,26,83,190,52,27,31,261,42,28,15,185,38,29,23,068,42,1*6E
$GPGSV,4,4,13,31,38,207,46,1*58
$GSGSV,3,1,11,01,33,195,,02,34,181,,04,28,145,43,05,29,147,,1*61
$GSGSV,3,2,11,06,33,195,,07,05,106,,08,11,114,,17,34,167,,1*65
$GSGSV,3,3,11,28,19,125,,29,-35,054,35,39,17,237,,1*7E
$GLGSV,2,1,08,70,06,340,,71,08,026,,77,21,147,34,78,81,182,52,1*73
$GLGSV,2,2,08,79,40,320,46,81,31,222,,87,31,039,,88,89,257,44,1*76
$GQGSV,1,1,00,1*65
$GAGSV,2,1,08,04,08,300,40,09,04,345,,13,61,158,48,15,45,056,46,7*7D
$GAGSV,2,2,08,18,,,40,21,79,300,48,26,16,199,42,27,44,122,46,7*46
$GBGSV,3,1,09,05,09,111,35,08,28,040,40,11,46,055,46,13,32,053,40,1*75
$GBGSV,3,2,09,21,04,057,37,22,02,010,,23,56,182,48,25,11,153,41,1*7C
$GBGSV,3,3,09,28,43,229,46,1*49
$GIGSV,1,1,01,06,24,135,,1*4B
$GPZDA,080305.00,06,06,2024,,*6C
$GPGGA,080305.00,4825.0750440,N,00428.3604080,W,4,12,0.6,98.795,M,51.637,M,1.0,4095*65
$GPRMC,080305.00,A,4825.0750440,N,00428.3604080,W,0.0,0.0,060624,999.9,E,D*24
$GPVTG,000.00,T,-639.90,M,000.005,N,000.010,K,D*0A
$GNGSA,A,3,26,05,29,18,27,31,16,28,,,,,1.1,0.6,0.9,1*37
$GNGSA,A,3,78,88,79,77,,,,,,,,,1.1,0.6,0.9,2*3C
$GPGSV,4,1,13,01,77,130,51,04,05,281,36,05,14,039,40,09,04,316,38,1*67
$GPGSV,4,2,13,16,51,300,45,18,64,096,46,20,00,018,,23,10,134,41,1*6F
$GPGSV,4,3,13,26,83,190,51,27,31,261,43,28,15,185,38,29,23,068,42,1*6C
$GPGSV,4,4,13,31,38,207,46,1*58
$GSGSV,3,1,11,01,33,195,,02,34,181,,04,28,145,44,05,29,147,,1*66
$GSGSV,3,2,11,06,33,195,,07,05,106,,08,11,114,,17,34,167,,1*65
$GSGSV,3,3,11,28,19,125,,29,-35,054,34,39,17,237,,1*7F
$GLGSV,2,1,08,70,06,340,,71,08,026,,77,21,147,34,78,81,181,53,1*71
$GLGSV,2,2,08,79,40,320,46,81,31,222,,87,31,039,,88,89,258,45,1*78
$GQGSV,1,1,00,1*65
$GAGSV,2,1,08,04,08,300,39,09,04,345,,13,61,158,48,15,45,056,46,7*73
$GAGSV,2,2,08,18,,,40,21,79,300,48,26,17,199,42,27,44,122,46,7*47
$GBGSV,3,1,09,05,09,110,35,08,28,040,39,11,46,055,46,13,32,053,41,1*7B
$GBGSV,3,2,09,21,04,057,38,22,02,010,,23,56,182,48,25,11,153,41,1*73
$GBGSV,3,3,09,28,43,229,47,1*48
$GIGSV,1,1,01,06,24,135,,1*4B
$GPZDA,080306.00,06,06,2024,,*6F
$GPGGA,080306.00,4825.0750436,N,00428.3604073,W,4,12,0.6,98.788,M,51.637,M,1.0,4095*67
$GPRMC,080306.00,A,4825.0750436,N,00428.3604073,W,0.0,0.0,060624,999.9,E,D*2A
$GPVTG,000.00,T,-639.90,M,000.008,N,000.016,K,D*01
$GNGSA,A,3,26,05,29,18,27,31,16,28,,,,,1.1,0.6,0.9,1*37
$GNGSA,A,3,78,88,79,77,,,,,,,,,1.1,0.6,0.9,2*3C
$GPGSV,4,1,13,01,77,130,51,04,05,281,36,05,14,039,41,09,04,316,38,1*66
$GPGSV,4,2,13,16,51,300,46,18,64,096,46,20,00,018,,23,10,134,41,1*6C
$GPGSV,4,3,13,26,83,190,52,27,31,261,41,28,15,185,37,29,23,068,42,1*62
$GPGSV,4,4,13,31,38,207,46,1*58
$GSGSV,3,1,11,01,33,195,,02,34,181,,04,28,145,44,05,29,147,,1*66
$GSGSV,3,2,11,06,33,195,,07,05,106,,08,11,114,,17,34,167,,1*65
$GSGSV,3,3,11,28,19,125,,29,-35,054,34,39,17,237,,1*7F
$GLGSV,2,1,08,70,06,340,,71,08,026,,77,21,147,34,78,81,181,52,1*70
$GLGSV,2,2,08,79,40,320,45,81,31,222,,87,31,039,,88,89,258,44,1*7A
$GQGSV,1,1,00,1*65
$GAGSV,2,1,08,04,08,300,40,09,04,345,,13,61,158,48,15,45,056,46,7*7D
$GAGSV,2,2,08,18,,,40,21,79,300,48,26,17,199,41,27,44,122,46,7*44
$GBGSV,3,1,09,05,09,110,35,08,28,040,39,11,46,055,45,13,32,053,40,1*79
$GBGSV,3,2,09,21,04,057,38,22,02,010,,23,56,182,48,25,11,153,40,1*72
$GBGSV,3,3,09,28,43,229,46,1*49
$GIGSV,1,1,01,06,24,135,,1*4B
$GPZDA,080307.00,06,06,2024,,*6E
$GPGGA,080307.00,4825.0750430,N,00428.3604069,W,4,12,0.6,98.796,M,51.637,M,1.0,4095*64
$GPRMC,080307.00,A,4825.0750430,N,00428.3604069,W,0.0,0.0,060624,999.9,E,D*26
$GPVTG,000.00,T,-639.90,M,000.008,N,000.014,K,D*03
$GNGSA,A,3,26,05,29,18,27,31,16,28,,,,,1.1,0.6,0.9,1*37
$GNGSA,A,3,78,88,79,77,,,,,,,,,1.1,0.6,0.9,2*3C
$GPGSV,4,1,13,01,77,130,51,04,05,281,36,05,14,039,41,09,04,316,38,1*66
$GPGSV,4,2,13,16,51,300,46,18,64,096,46,20,00,018,,23,10,134,41,1*6C
$GPGSV,4,3,13,26,83,190,52,27,31,261,42,28,15,185,37,29,23,068,42,1*61
$GPGSV,4,4,13,31,38,207,46,1*58
$GSGSV,3,1,11,01,33,195,,02,34,181,,04,28,145,43,05,29,147,,1*61
$GSGSV,3,2,11,06,33,195,,07,05,106,,08,11,114,,17,34,167,,1*65
$GSGSV,3,3,11,28,19,125,,29,-35,054,34,39,17,237,,1*7F
$GLGSV,2,1,08,70,06,340,,71,08,026,,77,21,147,34,78,81,181,52,1*70
$GLGSV,2,2,08,79,40,320,44,81,31,222,,87,31,039,,88,89,258,43,1*7C
$GQGSV,1,1,00,1*65
$GAGSV,2,1,08,04,08,300,40,09,04,345,,13,61,158,48,15,45,056,46,7*7D
$GAGSV,2,2,08,18,,,41,21,79,300,48,26,17,199,41,27,44,122,47,7*44
$GBGSV,3,1,09,05,09,110,34,08,28,040,38,11,46,055,44,13,32,053,40,1*78
$GBGSV,3,2,09,21,04,057,37,22,02,010,,23,56,182,47,25,11,153,40,1*72
$GBGSV,3,3,09,28,43,229,46,1*49
$GIGSV,1,1,01,06,24,135,,1*4B
$GPZDA,080308.00,06,06,2024,,*61
$GPGGA,080308.00,4825.0750439,N,00428.3604080,W,4,12,0.6,98.791,M,51.637,M,1.0,4095*62
$GPRMC,080308.00,A,4825.0750439,N,00428.3604080,W,0.0,0.0,060624,999.9,E,D*27
$GPVTG,000.00,T,-639.90,M,000.001,N,000.002,K,D*0D
$GNGSA,A,3,26,05,29,18,27,31,16,28,,,,,1.1,0.6,0.9,1*37
$GNGSA,A,3,78,88,79,77,,,,,,,,,1.1,0.6,0.9,2*3C
$GPGSV,4,1,13,01,77,130,50,04,05,281,35,05,14,039,40,09,04,316,37,1*6A
$GPGSV,4,2,13,16,51,300,46,18,64,096,46,20,00,018,,23,10,134,41,1*6C
$GPGSV,4,3,13,26,83,190,51,27,31,261,42,28,15,185,37,29,23,068,42,1*62
$GPGSV,4,4,13,31,38,207,46,1*58
$GSGSV,3,1,11,01,33,195,,02,34,181,,04,28,145,43,05,29,147,,1*61
$GSGSV,3,2,11,06,33,195,,07,05,106,,08,11,114,,17,34,167,,1*65
$GSGSV,3,3,11,28,19,125,,29,-35,054,34,39,17,237,,1*7F
$GLGSV,2,1,08,70,06,340,,71,08,026,,77,21,147,34,78,81,181,52,1*70
$GLGSV,2,2,08,79,40,320,45,81,31,222,,87,31,039,,88,89,259,43,1*7C
$GQGSV,1,1,00,1*65
$GAGSV,2,1,08,04,08,300,40,09,04,345,,13,61,158,48,15,45,056,46,7*7D
$GAGSV,2,2,08,18,,,41,21,79,300,48,26,17,199,41,27,44,122,46,7*45
$GBGSV,3,1,09,05,09,110,34,08,28,040,38,11,46,055,45,13,32,053,40,1*79
$GBGSV,3,2,09,21,04,057,37,22,02,010,,23,56,182,47,25,11,153,40,1*72
$GBGSV,3,3,09,28,43,229,47,1*48
$GIGSV,1,1,01,06,24,135,,1*4B
$GPZDA,080309.00,06,06,2024,,*60
$GPGGA,080309.00,4825.0750449,N,00428.3604060,W,4,12,0.6,98.788,M,51.637,M,1.0,4095*62
$GPRMC,080309.00,A,4825.0750449,N,00428.3604060,W,0.0,0.0,060624,999.9,E,D*2F
$GPVTG,000.00,T,-639.90,M,000.004,N,000.007,K,D*0D
$GNGSA,A,3,26,05,29,18,27,31,16,28,,,,,1.1,0.6,0.9,1*37
$GNGSA,A,3,78,88,79,77,,,,,,,,,1.1,0.6,0.9,2*3C
$GPGSV,4,1,13,01,77,130,50,04,05,281,36,05,14,039,40,09,04,316,38,1*66
$GPGSV,4,2,13,16,51,300,46,18,64,096,46,20,00,018,,23,10,134,41,1*6C
$GPGSV,4,3,13,26,83,190,51,27,31,261,42,28,15,185,37,29,23,068,42,1*62
$GPGSV,4,4,13,31,38,207,46,1*58
$GSGSV,3,1,11,01,33,195,,02,34,181,,04,28,145,43,05,29,147,,1*61
$GSGSV,3,2,11,06,33,195,,07,05,106,,08,11,114,,17,34,167,,1*65
$GSGSV,3,3,11,28,19,125,,29,-35,054,34,39,17,237,,1*7F
$GLGSV,2,1,08,70,06,340,,71,08,026,,77,21,147,34,78,81,181,52,1*70
$GLGSV,2,2,08,79,40,320,45,81,31,222,,87,31,039,,88,89,259,43,1*7C
$GQGSV,1,1,00,1*65
$GAGSV,2,1,08,04,08,300,40,09,04,345,,13,61,158,48,15,45,056,46,7*7D
$GAGSV,2,2,08,18,,,41,21,79,300,48,26,17,199,41,27,44,122,46,7*45
$GBGSV,3,1,09,05,09,110,34,08,28,040,39,11,46,055,44,13,32,053,41,1*78
$GBGSV,3,2,09,21,04,057,38,22,02,010,,23,56,182,47,25,11,153,40,1*7D
$GBGSV,3,3,09,28,43,229,46,1*49
$GIGSV,1,1,01,06,24,135,,1*4B
$GPZDA,080310.00,06,06,2024,,*68
$GPGGA,080310.00,4825.0750453,N,00428.3604074,W,4,12,0.6,98.786,M,51.637,M,1.0,4095*6A
$GPRMC,080310.00,A,4825.0750453,N,00428.3604074,W,0.0,0.0,060624,999.9,E,D*29
$GPVTG,000.00,T,-639.90,M,000.005,N,000.010,K,D*0A
$GNGSA,A,3,26,05,29,18,27,31,16,28,,,,,1.1,0.6,0.9,1*37
$GNGSA,A,3,78,88,79,77,,,,,,,,,1.1,0.6,0.9,2*3C
$GPGSV,4,1,13,01,77,130,51,04,05,281,36,05,14,039,40,09,04,316,38,1*67
$GPGSV,4,2,13,16,51,300,46,18,64,096,46,20,00,018,,23,10,134,41,1*6C
$GPGSV,4,3,13,26,83,190,51,27,31,261,42,28,15,185,37,29,23,068,41,1*61
$GPGSV,4,4,13,31,38,207,46,1*58
$GSGSV,3,1,11,01,33,195,,02,34,181,,04,28,145,43,05,29,147,,1*61
$GSGSV,3,2,11,06,33,195,,07,05,106,,08,11,114,,17,34,167,,1*65
$GSGSV,3,3,11,28,19,125,,29,-35,054,35,39,17,237,,1*7E
$GLGSV,2,1,08,70,06,340,,71,08,026,,77,21,147,33,78,81,181,52,1*77
$GLGSV,2,2,08,79,40,320,45,81,31,222,,87,31,039,,88,89,259,43,1*7C
$GQGSV,1,1,00,1*65
$GAGSV,2,1,08,04,08,300,40,09,04,345,,13,61,158,48,15,45,056,46,7*7D
$GAGSV,2,2,08,18,,,41,21,79,300,48,26,17,199,41,27,44,122,46,7*45
$GBGSV,3,1,09,05,09,110,35,08,28,040,39,11,46,055,45,13,32,053,40,1*79
$GBGSV,3,2,09,21,04,057,38,22,02,010,,23,56,182,48,25,11,153,40,1*72
$GBGSV,3,3,09,28,43,229,47,1*48
$GIGSV,1,1,01,06,24,135,,1*4B
$GPZDA,080311.00,06,06,2024,,*69
$GPGGA,080311.00,4825.0750445,N,00428.3604071,W,4,12,0.6,98.792,M,51.637,M,1.0,4095*6C
$GPRMC,080311.00,A,4825.0750445,N,00428.3604071,W,0.0,0.0,060624,999.9,E,D*2A
$GPVTG,000.00,T,-639.90,M,000.005,N,000.010,K,D*0A
$GNGSA,A,3,26,05,29,18,27,31,16,28,,,,,1.1,0.6,0.9,1*37
$GNGSA,A,3,78,88,79,77,,,,,,,,,1.1,0.6,0.9,2*3C
$GPGSV,4,1,13,01,77,130,51,04,05,281,35,05,14,039,40,09,04,316,39,1*65
$GPGSV,4,2,13,16,51,300,46,18,64,096,46,20,00,018,,23,10,134,41,1*6C
$GPGSV,4,3,13,26,83,190,52,27,31,261,42,28,15,185,37,29,23,068,42,1*61
$GPGSV,4,4,13,31,38,207,46,1*58
$GSGSV,3,1,11,01,33,195,,02,34,181,,04,28,145,44,05,29,147,,1*66
$GSGSV,3,2,11,06,33,195,,07,05,106,,08,11,114,,17,34,167,,1*65
$GSGSV,3,3,11,28,19,125,,29,-35,054,35,39,17,237,,1*7E
$GLGSV,2,1,08,70,06,340,,71,08,026,,77,21,147,34,78,81,181,53,1*71
$GLGSV,2,2,08,79,40,320,45,81,31,222,,87,31,039,,88,89,260,43,1*76
$GQGSV,1,1,00,1*65
$GAGSV,2,1,08,04,08,300,40,09,04,345,,13,61,158,47,15,45,056,45,7*71
$GAGSV,2,2,08,18,,,41,21,79,300,48,26,17,199,41,27,44,122,46,7*45
$GBGSV,3,1,09,05,09,110,35,08,28,040,38,11,46,055,44,13,32,053,40,1*79
$GBGSV,3,2,09,21,04,057,37,22,02,010,,23,56,182,48,25,11,153,41,1*7C
$GBGSV,3,3,09,28,43,229,46,1*49
$GIGSV,1,1,01,06,24,135,,1*4B
$GPZDA,080312.00,06,06,2024,,*6A
$GPGGA,080312.00,4825.0750425,N,00428.3604081,W,4,12,0.6,98.791,M,51.637,M,1.0,4095*65
$GPRMC,080312.00,A,4825.0750425,N,00428.3604081,W,0.0,0.0,060624,999.9,E,D*20
$GPVTG,000.00,T,-639.90,M,000.010,N,000.018,K,D*06
$GNGSA,A,3,26,05,29,18,27,31,16,28,,,,,1.1,0.6,0.9,1*37
$GNGSA,A,3,78,88,79,77,,,,,,,,,1.1,0.6,0.9,2*3C
$GPGSV,4,1,13,01,77,130,51,04,05,281,35,05,14,039,40,09,04,316,40,1*6B
$GPGSV,4,2,13,16,51,300,46,18,64,096,46,20,00,018,,23,10,134,41,1*6C
$GPGSV,4,3,13,26,83,190,52,27,31,261,43,28,15,185,37,29,23,068,42,1*60
$GPGSV,4,4,13,31,38,207,46,1*58
$GSGSV,3,1,11,01,33,195,,02,34,181,,04,28,145,44,05,29,147,,1*66
$GSGSV,3,2,11,06,33,195,,07,05,106,,08,11,114,,17,34,167,,1*65
$GSGSV,3,3,11,28,19,125,,29,-35,054,35,39,17,237,,1*7E
$GLGSV,2,1,08,70,06,340,,71,08,026,,77,21,147,34,78,81,181,53,1*71
$GLGSV,2,2,08,79,40,320,46,81,31,222,,87,31,039,,88,89,260,44,1*72
$GQGSV,1,1,00,1*65
$GAGSV,2,1,08,04,08,300,40,09,04,345,,13,61,158,48,15,45,056,45,7*7E
$GAGSV,2,2,08,18,,,41,21,79,300,49,26,17,199,41,27,44,122,46,7*44
$GBGSV,3,1,09,05,09,110,34,08,28,040,39,11,46,055,45,13,32,053,39,1*76
$GBGSV,3,2,09,21,04,057,38,22,02,010,,23,56,182,48,25,11,153,41,1*73
$GBGSV,3,3,09,28,43,230,47,1*40
$GIGSV,1,1,01,06,24,135,,1*4B
$GPZDA,080313.00,06,06,2024,,*6B
$GPGGA,080313.00,4825.0750436,N,00428.3604065,W,4,12,0.6,98.794,M,51.637,M,1.0,4095*69
$GPRMC,080313.00,A,4825.0750436,N,00428.3604065,W,0.0,0.0,060624,999.9,E,D*29
$GPVTG,000.00,T,-639.90,M,000.007,N,000.012,K,D*0A
$GNGSA,A,3,26,05,29,18,27,31,16,28,,,,,1.1,0.6,0.9,1*37
$GNGSA,A,3,78,88,79,77,,,,,,,,,1.1,0.6,0.9,2*3C
$GPGSV,4,1,13,01,77,130,51,04,05,281,35,05,14,039,40,09,04,316,39,1*65
$GPGSV,4,2,13,16,51,300,47,18,64,096,46,20,00,018,,23,10,134,42,1*6E
$GPGSV,4,3,13,26,83,190,52,27,31,261,42,28,15,185,36,29,23,068,42,1*60
$GPGSV,4,4,13,31,38,207,47,1*59
$GSGSV,3,1,11,01,33,195,,02,34,181,,04,28,145,45,05,29,147,,1*67
$GSGSV,3,2,11,06,33,195,,07,05,106,,08,11,114,,17,34,167,,1*65
$GSGSV,3,3,11,28,19,125,,29,-35,054,35,39,17,237,,1*7E
$GLGSV,2,1,08,70,06,340,,71,08,026,,77,21,147,34,78,81,181,53,1*71
$GLGSV,2,2,08,79,40,320,45,81,31,222,,87,31,039,,88,89,261,44,1*70
$GQGSV,1,1,00,1*65
$GAGSV,2,1,08,04,08,300,39,09,04,345,,13,61,158,48,15,45,056,46,7*73
$GAGSV,2,2,08,18,,,41,21,79,300,49,26,17,199,41,27,44,122,46,7*44
$GBGSV,3,1,09,05,09,110,35,08,28,040,39,11,46,055,45,13,32,053,39,1*77
$GBGSV,3,2,09,21,04,057,38,22,02,010,,23,56,182,48,25,11,153,41,1*73
$GBGSV,3,3,09,28,43,230,47,1*40
$GIGSV,1,1,01,06,24,135,,1*4B
$GPZDA,080314.00,06,06,2024,,*6C
$GPGGA,080314.00,4825.0750438,N,00428.3604063,W,4,12,0.6,98.790,M,51.637,M,1.0,4095*62
$GPRMC,080314.00,A,4825.0750438,N,00428.3604063,W,0.0,0.0,060624,999.9,E,D*26
$GPVTG,000.00,T,-639.90,M,000.004,N,000.007,K,D*0D
$GNGSA,A,3,26,05,29,18,27,31,16,28,,,,,1.1,0.6,0.9,1*37
$GNGSA,A,3,78,88,79,77,,,,,,,,,1.1,0.6,0.9,2*3C
$GPGSV,4,1,13,01,77,130,51,04,05,281,35,05,14,039,41,09,04,316,38,1*65
$GPGSV,4,2,13,16,51,300,45,18,64,096,47,20,00,018,,23,10,134,41,1*6E
$GPGSV,4,3,13,26,83,190,52,27,31,261,42,28,15,185,36,29,23,068,41,1*63
$GPGSV,4,4,13,31,38,207,47,1*59
$GSGSV,3,1,11,01,33,195,,02,34,181,,04,28,145,45,05,29,147,,1*67
$GSGSV,3,2,11,06,33,195,,07,05,106,,08,11,114,,17,34,167,,1*65
$GSGSV,3,3,11,28,19,125,,29,-35,054,35,39,17,237,,1*7E
$GLGSV,2,1,08,70,06,340,,71,08,026,,77,21,147,34,78,81,181,53,1*71
$GLGSV,2,2,08,79,40,320,46,81,31,222,,87,31,039,,88,89,261,44,1*73
$GQGSV,1,1,00,1*65
$GAGSV,2,1,08,04,08,300,39,09,04,345,,13,61,158,48,15,45,056,46,7*73
$GAGSV,2,2,08,18,,,41,21,79,300,49,26,17,199,41,27,44,122,46,7*44
$GBGSV,3,1,09,05,09,110,35,08,28,040,40,11,46,055,45,13,32,053,40,1*77
$GBGSV,3,2,09,21,04,057,38,22,02,010,,23,56,182,48,25,11,153,40,1*72
$GBGSV,3,3,09,28,43,230,47,1*40
$GIGSV,1,1,01,06,24,135,,1*4B
$GPZDA,080315.00,06,06,2024,,*6D
$GPGGA,080315.00,4825.0750437,N,00428.3604097,W,4,12,0.6,98.790,M,51.637,M,1.0,4095*67
$GPRMC,080315.00,A,4825.0750437,N,00428.3604097,W,0.0,0.0,060624,999.9,E,D*23
$GPVTG,000.00,T,-639.90,M,000.004,N,000.008,K,D*02
$GNGSA,A,3,26,05,29,18,27,31,16,28,,,,,1.1,0.6,0.9,1*37
$GNGSA,A,3,78,88,79,77,,,,,,,,,1.1,0.6,0.9,2*3C
$GPGSV,4,1,13,01,77,130,51,04,05,281,35,05,14,039,40,09,04,316,38,1*64
$GPGSV,4,2,13,16,51,300,46,18,64,096,47,20,00,018,,23,10,134,42,1*6E
$GPGSV,4,3,13,26,83,190,52,27,31,261,42,28,15,185,37,29,23,068,41,1*62
$GPGSV,4,4,13,31,38,207,47,1*59
$GSGSV,3,1,11,01,33,195,,02,34,181,,04,28,145,45,05,29,147,,1*67
$GSGSV,3,2,11,06,33,195,,07,05,106,,08,11,114,,17,34,167,,1*65
$GSGSV,3,3,11,28,19,125,,29,-35,054,34,39,17,237,,1*7F
$GLGSV,2,1,08,70,06,340,,71,08,026,,77,21,147,34,78,81,181,53,1*71
$GLGSV,2,2,08,79,40,320,45,81,31,222,,87,31,039,,88,89,261,44,1*70
$GQGSV,1,1,00,1*65
$GAGSV,2,1,08,04,08,300,39,09,04,345,,13,61,158,47,15,45,056,45,7*7F
$GAGSV,2,2,08,18,,,41,21,79,300,49,26,17,199,41,27,44,122,46,7*44
$GBGSV,3,1,09,05,09,110,35,08,28,040,39,11,46,055,45,13,32,053,40,1*79
$GBGSV,3,2,09,21,04,057,38,22,02,010,,23,56,182,48,25,11,153,41,1*73
$GBGSV,3,3,09,28,43,230,47,1*40
$GIGSV,1,1,01,06,24,135,,1*4B
$GPZDA,080316.00,06,06,2024,,*6E
$GPGGA,080316.00,4825.0750447,N,00428.3604056,W,4,12,0.6,98.792,M,51.637,M,1.0,4095*6C
$GPRMC,080316.00,A,4825.0750447,N,00428.3604056,W,0.0,0.0,060624,999.9,E,D*2A
$GPVTG,000.00,T,-639.90,M,000.004,N,000.008,K,D*02
$GNGSA,A,3,26,05,29,18,27,31,16,28,,,,,1.1,0.6,0.9,1*37
$GNGSA,A,3,78,88,79,77,,,,,,,,,1.1,0.6,0.9,2*3C
$GPGSV,4,1,13,01,77,130,51,04,05,281,35,05,14,039,40,09,04,316,38,1*64
$GPGSV,4,2,13,16,51,300,46,18,64,096,47,20,00,018,,23,10,134,43,1*6F
$GPGSV,4,3,13,26,83,190,52,27,31,261,42,28,15,185,37,29,23,068,41,1*62
$GPGSV,4,4,13,31,38,207,47,1*59
$GSGSV,3,1,11,01,33,195,,02,34,181,,04,28,145,44,05,29,147,,1*66
$GSGSV,3,2,11,06,33,195,,07,05,106,,08,11,114,,17,34,167,,1*65
$GSGSV,3,3,11,28,19,125,,29,-35,054,34,39,17,237,,1*7F
$GLGSV,2,1,08,70,06,340,,71,08,026,,77,20,147,34,78,81,181,53,1*70
$GLGSV,2,2,08,79,40,320,45,81,31,222,,87,31,039,,88,89,262,44,1*73
$GQGSV,1,1,00,1*65
$GAGSV,2,1,08,04,08,300,40,09,04,345,,13,61,158,47,15,45,056,46,7*72
$GAGSV,2,2,08,18,,,41,21,79,300,49,26,17,199,41,27,44,122,46,7*44
$GBGSV,3,1,09,05,09,110,35,08,28,040,40,11,46,055,45,13,32,053,40,1*77
$GBGSV,3,2,09,21,04,057,38,22,02,010,,23,56,182,48,25,11,153,41,1*73
$GBGSV,3,3,09,28,43,230,47,1*40
$GIGSV,1,1,01,06,24,135,,1*4B
$GPZDA,080317.00,06,06,2024,,*6F
$GPGGA,080317.00,4825.0750449,N,00428.3604074,W,4,12,0.6,98.791,M,51.637,M,1.0,4095*60
$GPRMC,080317.00,A,4825.0750449,N,00428.3604074,W,0.0,0.0,060624,999.9,E,D*25
$GPVTG,000.00,T,-639.90,M,000.003,N,000.005,K,D*08
$GNGSA,A,3,26,05,29,18,27,31,16,28,,,,,1.1,0.6,0.9,1*37
$GNGSA,A,3,78,88,79,77,,,,,,,,,1.1,0.6,0.9,2*3C
$GPGSV,4,1,13,01,77,130,51,04,05,281,35,05,14,039,41,09,04,316,37,1*6A
$GPGSV,4,2,13,16,51,300,46,18,64,096,48,20,00,018,,23,10,134,43,1*60
$GPGSV,4,3,13,26,83,190,52,27,31,261,42,28,15,185,37,29,23,068,42,1*61
$GPGSV,4,4,13,31,38,207,47,1*59
$GSGSV,3,1,11,01,33,195,,02,34,181,,04,28,145,45,05,29,147,,1*67
$GSGSV,3,2,11,06,33,195,,07,05,106,,08,11,114,,17,34,167,,1*65
$GSGSV,3,3,11,28,19,125,,29,-35,054,35,39,17,237,,1*7E
$GLGSV,2,1,08,70,06,340,,71,08,026,,77,20,147,34,78,81,181,53,1*70
$GLGSV,2,2,08,79,40,320,45,81,31,222,,87,31,039,,88,89,262,44,1*73
$GQGSV,1,1,00,1*65
$GAGSV,2,1,08,04,08,300,40,09,04,345,,13,61,158,47,15,45,056,46,7*72
$GAGSV,2,2,08,18,,,41,21,79,300,48,26,17,199,41,27,44,122,46,7*45
$GBGSV,3,1,09,05,09,110,35,08,28,040,39,11,46,055,45,13,32,053,40,1*79
$GBGSV,3,2,09,21,04,057,37,22,02,010,,23,56,182,48,25,11,153,41,1*7C
$GBGSV,3,3,09,28,43,230,47,1*40
$GIGSV,1,1,01,06,24,135,,1*4B
$GPZDA,080318.00,06,06,2024,,*60
$GPGGA,080318.00,4825.0750435,N,00428.3604082,W,4,12,0.6,98.790,M,51.637,M,1.0,4095*6C
$GPRMC,080318.00,A,4825.0750435,N,00428.3604082,W,0.0,0.0,060624,999.9,E,D*28
$GPVTG,000.00,T,-639.90,M,000.003,N,000.006,K,D*0B
$GNGSA,A,3,26,05,29,18,27,31,16,28,,,,,1.1,0.6,0.9,1*37
$GNGSA,A,3,78,88,79,77,,,,,,,,,1.1,0.6,0.9,2*3C
$GPGSV,4,1,13,01,77,130,51,04,05,281,35,05,14,039,41,09,04,316,38,1*65
$GPGSV,4,2,13,16,51,300,46,18,64,096,47,20,00,018,,23,10,134,43,1*6F
$GPGSV,4,3,13,26,83,190,52,27,31,261,41,28,15,185,37,29,23,068,42,1*62
$GPGSV,4,4,13,31,38,207,47,1*59
$GSGSV,3,1,11,01,33,195,,02,34,181,,04,28,145,46,05,29,147,,1*64
$GSGSV,3,2,11,06,33,195,,07,05,106,,08,11,114,,17,34,167,,1*65
$GSGSV,3,3,11,28,19,125,,29,-35,054,34,39,17,237,,1*7F
$GLGSV,2,1,08,70,06,340,,71,08,026,,77,20,147,34,78,81,181,52,1*71
$GLGSV,2,2,08,79,40,320,45,81,31,222,,87,31,039,,88,89,263,44,1*72
$GQGSV,1,1,00,1*65
$GAGSV,2,1,08,04,08,300,40,09,04,345,,13,61,158,48,15,45,056,46,7*7D
$GAGSV,2,2,08,18,,,41,21,79,300,48,26,17,199,41,27,44,122,46,7*45
$GBGSV,3,1,09,05,09,110,35,08,28,040,39,11,46,055,45,13,32,053,40,1*79
$GBGSV,3,2,09,21,04,057,37,22,02,010,,23,56,182,48,25,11,153,41,1*7C
$GBGSV,3,3,09,28,43,230,47,1*40
$GIGSV,1,1,01,06,24,135,,1*4B
$GPZDA,080319.00,06,06,2024,,*61
$GPGGA,080319.00,4825.0750436,N,00428.3604072,W,4,12,0.6,98.793,M,51.637,M,1.0,4095*62
$GPRMC,080319.00,A,4825.0750436,N,00428.3604072,W,0.0,0.0,060624,999.9,E,D*25
$GPVTG,000.00,T,-639.90,M,000.006,N,000.010,K,D*09
$GNGSA,A,3,26,05,29,18,27,31,16,28,,,,,1.1,0.6,0.9,1*37
$GNGSA,A,3,78,88,79,77,,,,,,,,,1.1,0.6,0.9,2*3C
$GPGSV,4,1,13,01,77,130,51,04,05,281,36,05,14,039,41,09,04,316,38,1*66
$GPGSV,4,2,13,16,51,300,46,18,64,096,47,20,00,018,,23,10,134,43,1*6F
$GPGSV,4,3,13,26,83,190,52,27,31,261,42,28,15,185,37,29,23,068,42,1*61
$GPGSV,4,4,13,31,38,207,45,1*5B
$GSGSV,3,1,11,01,33,195,,02,34,181,,04,28,145,46,05,29,147,,1*64
$GSGSV,3,2,11,06,33,195,,07,05,106,,08,11,114,,17,34,167,,1*65
$GSGSV,3,3,11,28,19,125,,29,-35,054,33,39,17,237,,1*78
$GLGSV,2,1,08,70,06,340,,71,08,026,,77,20,147,35,78,81,181,52,1*70
$GLGSV,2,2,08,79,40,320,45,81,31,222,,87,31,039,,88,89,263,44,1*72
$GQGSV,1,1,00,1*65
$GAGSV,2,1,08,04,08,300,39,09,04,345,,13,61,158,48,15,45,056,46,7*73
$GAGSV,2,2,08,18,,,41,21,79,300,49,26,17,199,41,27,44,122,46,7*44
$GBGSV,3,1,09,05,09,110,36,08,28,040,39,11,46,055,45,13,32,053,41,1*7B
$GBGSV,3,2,09,21,04,057,37,22,02,010,,23,56,182,48,25,11,153,41,1*7C
$GBGSV,3,3,09,28,43,230,47,1*40
$GIGSV,1,1,01,06,24,135,,1*4B
$GPZDA,080320.00,06,06,2024,,*6B
$GPGGA,080320.00,4825.0750435,N,00428.3604092,W,4,12,0.6,98.794,M,51.637,M,1.0,4095*62
$GPRMC,080320.00,A,4825.0750435,N,00428.3604092,W,0.0,0.0,060624,999.9,E,D*22
$GPVTG,000.00,T,-639.90,M,000.009,N,000.018,K,D*0E
$GNGSA,A,3,26,05,29,18,27,31,16,28,,,,,1.1,0.6,0.9,1*37
$GNGSA,A,3,78,88,79,77,,,,,,,,,1.1,0.6,0.9,2*3C
$GPGSV,4,1,13,01,77,130,51,04,05,281,35,05,14,039,41,09,04,316,38,1*65
$GPGSV,4,2,13,16,51,300,46,18,64,096,47,20,00,018,,23,10,134,44,1*68
$GPGSV,4,3,13,26,83,190,51,27,31,261,41,28,15,185,37,29,23,068,41,1*62
$GPGSV,4,4,13,31,38,207,46,1*58
$GSGSV,3,1,11,01,33,195,,02,34,181,,04,28,145,46,05,29,147,,1*64
$GSGSV,3,2,11,06,33,195,,07,05,106,,08,11,114,,17,34,167,,1*65
$GSGSV,3,3,11,28,19,125,,29,-35,054,33,39,17,237,,1*78
$GLGSV,2,1,08,70,06,340,,71,08,026,,77,20,147,35,78,81,181,53,1*71
$GLGSV,2,2,08,79,40,320,45,81,31,222,,87,31,039,,88,89,263,44,1*72
$GQGSV,1,1,00,1*65
$GAGSV,2,1,08,04,08,300,39,09,04,345,,13,61,158,48,15,45,056,45,7*70
$GAGSV,2,2,08,18,,,40,21,79,300,49,26,17,199,41,27,44,122,46,7*45
$GBGSV,3,1,09,05,09,110,36,08,28,040,39,11,46,055,45,13,32,053,41,1*7B
$GBGSV,3,2,09,21,04,057,37,22,02,010,,23,56,182,48,25,11,153,41,1*7C
$GBGSV,3,3,09,28,43,230,47,1*40
$GIGSV,1,1,01,06,24,135,,1*4B
$GPZDA,080321.00,06,06,2024,,*6A
$GPGGA,080321.00,4825.0750441,N,00428.3604077,W,4,12,0.6,98.794,M,51.637,M,1.0,4095*6B
$GPRMC,080321.00,A,4825.0750441,N,00428.3604077,W,0.0,0.0,060624,999.9,E,D*2B
$GPVTG,000.00,T,-639.90,M,000.003,N,000.005,K,D*08
$GNGSA,A,3,26,05,29,18,27,31,16,28,,,,,1.1,0.6,0.9,1*37
$GNGSA,A,3,78,88,79,77,,,,,,,,,1.1,0.6,0.9,2*3C
$GPGSV,3,1,12,01,77,130,51,04,05,281,36,05,14,039,41,09,04,316,38,1*60
$GPGSV,3,2,12,16,51,300,46,18,64,096,47,23,10,134,44,26,83,190,52,1*65
$GPGSV,3,3,12,27,31,261,42,28,15,185,37,29,23,068,40,31,38,207,46,1*6B
$GSGSV,3,1,11,01,33,195,,02,34,181,,04,28,145,45,05,29,147,,1*67
$GSGSV,3,2,11,06,33,195,,07,05,106,,08,11,114,,17,34,167,,1*65
$GSGSV,3,3,11,28,19,125,,29,-35,054,33,39,17,237,,1*78
$GLGSV,2,1,08,70,06,340,,71,08,026,,77,20,147,35,78,81,181,53,1*71
$GLGSV,2,2,08,79,40,320,45,81,31,222,,87,31,039,,88,89,264,44,1*75
$GQGSV,1,1,00,1*65
$GAGSV,2,1,08,04,08,300,40,09,04,345,,13,61,158,48,15,45,056,46,7*7D
$GAGSV,2,2,08,18,,,41,21,79,300,50,26,17,199,41,27,44,122,46,7*4C
$GBGSV,3,1,09,05,09,110,36,08,28,040,40,11,46,055,46,13,32,053,41,1*76
$GBGSV,3,2,09,21,04,057,38,22,02,010,,23,56,182,48,25,11,153,41,1*73
$GBGSV,3,3,09,28,43,230,47,1*40
$GIGSV,1,1,01,06,24,135,,1*4B
$GPZDA,080322.00,06,06,2024,,*69
$GPGGA,080322.00,4825.0750446,N,00428.3604075,W,4,12,0.6,98.795,M,51.637,M,1.0,4095*6C
$GPRMC,080322.00,A,4825.0750446,N,00428.3604075,W,0.0,0.0,060624,999.9,E,D*2D
$GPVTG,000.00,T,-639.90,M,000.001,N,000.002,K,D*0D
$GNGSA,A,3,26,05,29,18,27,31,16,28,,,,,1.1,0.6,0.9,1*37
$GNGSA,A,3,78,88,79,77,,,,,,,,,1.1,0.6,0.9,2*3C
$GPGSV,3,1,12,01,77,130,51,04,05,281,36,05,14,039,41,09,04,316,37,1*6F
$GPGSV,3,2,12,16,51,300,46,18,64,096,48,23,10,134,44,26,83,190,51,1*69
$GPGSV,3,3,12,27,31,261,42,28,15,185,37,29,23,068,41,31,38,207,47,1*6B
$GSGSV,3,1,11,01,33,195,,02,34,181,,04,28,145,46,05,29,147,,1*64
$GSGSV,3,2,11,06,33,195,,07,05,106,,08,11,114,,17,34,167,,1*65
$GSGSV,3,3,11,28,19,125,,29,-35,054,34,39,17,237,,1*7F
$GLGSV,2,1,08,70,06,340,,71,08,026,,77,20,147,35,78,81,181,53,1*71
$GLGSV,2,2,08,79,40,320,45,81,31,222,,87,31,039,,88,89,264,44,1*75
$GQGSV,1,1,00,1*65
$GAGSV,2,1,08,04,08,300,39,09,04,345,,13,61,158,48,15,45,056,46,7*73
$GAGSV,2,2,08,18,,,41,21,79,300,49,26,17,199,41,27,44,122,46,7*44
$GBGSV,3,1,09,05,09,110,35,08,28,040,39,11,46,055,46,13,32,053,41,1*7B
$GBGSV,3,2,09,21,04,057,37,22,02,010,,23,56,182,48,25,11,153,40,1*7D
$GBGSV,3,3,09,28,43,230,46,1*41
$GIGSV,1,1,01,06,24,135,,1*4B
$GPZDA,080323.00,06,06,2024,,*68
$GPGGA,080323.00,4825.0750445,N,00428.3604066,W,4,12,0.6,98.791,M,51.637,M,1.0,4095*68
$GPRMC,080323.00,A,4825.0750445,N,00428.3604066,W,0.0,0.0,060624,999.9,E,D*2D
$GPVTG,000.00,T,-639.90,M,000.005,N,000.009,K,D*02
$GNGSA,A,3,26,05,29,18,27,31,16,28,,,,,1.0,0.6,0.8,1*37
$GNGSA,A,3,78,88,79,77,,,,,,,,,1.0,0.6,0.8,2*3C
$GPGSV,3,1,12,01,77,130,50,04,05,281,35,05,14,039,41,09,04,316,37,1*6D
$GPGSV,3,2,12,16,51,300,47,18,64,096,47,23,10,134,45,26,83,189,51,1*6E
$GPGSV,3,3,12,27,31,261,43,28,15,185,37,29,23,068,40,31,38,207,47,1*6B
$GSGSV,3,1,11,01,33,195,,02,34,181,,04,28,145,45,05,29,147,,1*67
$GSGSV,3,2,11,06,33,195,,07,05,106,,08,11,114,,17,34,167,,1*65
$GSGSV,3,3,11,28,19,125,,29,-35,054,34,39,17,237,,1*7F
$GLGSV,2,1,08,70,06,340,,71,08,026,,77,20,147,35,78,81,181,53,1*71
$GLGSV,2,2,08,79,40,320,46,81,31,222,,87,31,039,,88,89,265,45,1*76
$GQGSV,1,1,00,1*65
$GAGSV,2,1,08,04,08,300,40,09,04,345,,13,61,158,48,15,45,056,46,7*7D
$GAGSV,2,2,08,18,,,41,21,79,300,49,26,17,199,41,27,44,122,46,7*44
$GBGSV,3,1,09,05,09,110,35,08,28,040,39,11,46,055,46,13,32,053,41,1*7B
$GBGSV,3,2,09,21,04,057,37,22,02,010,,23,56,182,48,25,11,153,41,1*7C
$GBGSV,3,3,09,28,43,230,46,1*41
$GIGSV,1,1,01,06,24,135,,1*4B
$GPZDA,080324.00,06,06,2024,,*6F
$GPGGA,080324.00,4825.0750450,N,00428.3604076,W,4,12,0.6,98.788,M,51.637,M,2.0,4095*61
$GPRMC,080324.00,A,4825.0750450,N,00428.3604076,W,0.0,0.0,060624,999.9,E,D*2F
$GPVTG,000.00,T,-639.90,M,000.004,N,000.007,K,D*0D
$GNGSA,A,3,26,05,29,18,27,31,16,28,,,,,1.0,0.6,0.8,1*37
$GNGSA,A,3,78,88,79,77,,,,,,,,,1.0,0.6,0.8,2*3C
$GPGSV,3,1,12,01,77,130,49,04,05,281,35,05,14,039,41,09,04,316,37,1*65
$GPGSV,3,2,12,16,51,300,46,18,64,096,45,23,10,134,45,26,83,189,51,1*6D
$GPGSV,3,3,12,27,31,261,42,28,15,185,37,29,23,068,39,31,38,207,46,1*65
$GSGSV,3,1,11,01,33,195,,02,34,181,,04,28,145,44,05,29,147,,1*66
$GSGSV,3,2,11,06,33,195,,07,05,106,,08,11,114,,17,34,167,,1*65
$GSGSV,3,3,11,28,19,125,,29,-35,054,33,39,17,237,,1*78
$GLGSV,2,1,08,70,06,340,,71,08,026,,77,20,147,35,78,81,181,53,1*71
